geo_id,deped_id,school_name,address,adm0,adm1,adm2,adm3,longitude,latitude
GTM-000001,00-01-0001-42,EODP NO.20 ANTONIO JOSE DE IRISARRI,19 CALLE 12-71,GTM,Guatemala,Guatemala,,-90.5074658,14.62970373
GTM-000002,00-01-0002-42,EODP NO.21 GABRIELA MISTRAL,19 CALLE 12-71,GTM,Guatemala,Guatemala,,-90.5074658,14.62970373
GTM-000003,00-01-0003-42,EODP NO. 36 LA PRESIDENTA,2A AVE. Y 22 CALLE TERCER NIVEL MERCADO LA PRESIDENTA,GTM,Guatemala,Guatemala,,-90.52080427,14.62837351
GTM-000004,00-01-0004-42,EODP NO.30 OTILIA NUÑEZ ARIZA,12 CALLE A 14-56 BARRIO GERONA,GTM,Guatemala,Guatemala,,-90.50687515,14.63386342
GTM-000005,00-01-0005-42,EODP NO.8 OVIDIO DECROLY,3A CALLE 16-73,GTM,Guatemala,Guatemala,,-90.5004619,14.64353186
GTM-000006,00-01-0006-42,EODP NO.1 RAMONA GIL,2A. CALLE 4-28,GTM,Guatemala,Guatemala,,-90.51487315,14.64670364
GTM-000007,00-01-0007-42,EODP NO.38 DEL CENTRO DE BIENESTAR SOCIAL COLON,7A CALLE 12-67,GTM,Guatemala,Guatemala,,-90.50586237,14.64105129
GTM-000008,00-01-0008-42,EODP NO.12 LEONOR CIENFUEGOS,3A CALLE 0-72,GTM,Guatemala,Guatemala,,-90.51946796,14.64655395
GTM-000009,00-01-0058-43,ESCUELA DE NIÑOS NO.3 CAYETANO FRANCOS Y MONROY,15 CALLE 11-12,GTM,Guatemala,Guatemala,,-90.50916752,14.63260904
GTM-000010,00-01-0059-43,EOUV NO.27 REPUBLICA DE BRASIL,"3A . AVENIDA C 24-01,",GTM,Guatemala,Guatemala,,-90.51861702,14.62509008
GTM-000011,00-01-0063-43,EOUV NO.2 REPUBLICA DE COSTA RICA,14 CALLE 14-70,GTM,Guatemala,Guatemala,,-90.50499952,14.63321917
GTM-000012,00-01-0064-43,EOUV NO.9 LUCAS TOMAS COJULUN,13 AVENIDA 4-78,GTM,Guatemala,Guatemala,,-90.50592496,14.64323623
GTM-000013,00-01-0065-43,ESCUELA OFICIAL NO. 35 JOSE CECILIO DEL VALLE,15 CALLE 11-12,GTM,Guatemala,Guatemala,,-90.50916752,14.63260904
GTM-000014,00-01-0066-43,ESCUELA OFICIAL PARA NIÑAS NO .45 RAFAEL AYAU,14 AVENIDA 3-37,GTM,Guatemala,Guatemala,,-90.50351015,14.64389386
GTM-000015,00-01-0067-43,EOUN NO.5 MIGUEL GARCIA GRANADOS,13 AVENIDA 4-78,GTM,Guatemala,Guatemala,,-90.50592496,14.64323623
GTM-000016,00-01-0070-43,ESCUELA DE NIÑAS NO. 10 MANUEL CABRAL,14 CALLE 12-71,GTM,Guatemala,Guatemala,,-90.50687515,14.63386342
GTM-000017,00-01-0071-43,EOUN NO.67 APLICACION DE BELEN,13 CALLE 10-59,GTM,Guatemala,Guatemala,,-90.50934109,14.63554801
GTM-000018,00-01-0072-43,EOUN NO.3 DOLORES BEDOYA DE MOLINA,7A. AVENIDA 13-73,GTM,Guatemala,Guatemala,,-90.5130894,14.63486211
GTM-000019,00-01-0074-43,EOUM NO.82 DR. CARLOS MONZON MALICE,"AVE. ELENA Y 12 CALLE, DEPTO. DE PEDIATRIA HOSPITAL GENERAL",GTM,Guatemala,Guatemala,,-90.5215753,14.6404137
GTM-000020,00-01-0075-43,EOUM NO.72 GUATEMALTECOS SOMOS,3A. AV. C 24-24,GTM,Guatemala,Guatemala,,-90.51861702,14.62509008
GTM-000021,00-01-0078-43,EOUM NO.136 MERCADO SUR NO.2,6A AVE. 19-14,GTM,Guatemala,Guatemala,,-90.51588334,14.63034998
GTM-000022,00-01-0079-43,EOUM LABORATORIO NO. 2 GRUPO ESCOLAR CENTROAMERICANO NIÑOS DE LA ESPERANZA,10A CALLE 2-37,GTM,Guatemala,Guatemala,,-90.51789255,14.64006904
GTM-000023,00-01-0080-43,EOUM CENTRO DE RECUPERACION DE LISIADOS FISICOS,13 CALLE 0-18,GTM,Guatemala,Guatemala,,-90.52186912,14.63620692
GTM-000024,00-01-0085-43,EOUM NO.6 JORGE WASHINGTON,7A AVE. 13-73,GTM,Guatemala,Guatemala,,-90.5130894,14.63486211
GTM-000025,00-01-0087-43,EOUM COMPLEJO ESCOLAR PARA LA PAZ,3A. AVE 1-46,GTM,Guatemala,Guatemala,,-90.51637487,14.64835917
GTM-000026,00-01-0089-43,EOUM NO.38 JOSE MARIA CASTILLA,14 CALLE 12-71,GTM,Guatemala,Guatemala,,-90.50687515,14.63386342
GTM-000027,00-01-0090-43,ESCUELA OFICIAL URBANA MIXTA GRUPO ESCOLAR CENTROAMERICANO,10A CALLE 2-37,GTM,Guatemala,Guatemala,,-90.51789255,14.64006904
GTM-000028,00-01-0091-43,EOUM NO.51 NACIONES UNIDAS,13 CALLE 10-59,GTM,Guatemala,Guatemala,,-90.50934109,14.63554801
GTM-000029,00-01-0149-44,EOPA NO.26 JOSE JOAQUIN PARDO,3 AV. C 24-24 AV. EL FERROCARRIL,GTM,Guatemala,Guatemala,,-90.51861702,14.62509008
GTM-000030,00-01-0151-44,EOPA NO.1 TOMAS CACELLA,15 CALLE 11-12,GTM,Guatemala,Guatemala,,-90.50916752,14.63260904
GTM-000031,00-01-0154-45,INSTITUTO NACIONAL DE EDUCACION BASICA O DE CULTURA GENERAL MARIA LUISA SAMAYOA LANUZA,10A AVE. 9-42,GTM,Guatemala,Guatemala,,-90.5102133,14.63947173
GTM-000032,00-01-0174-46,ESCUELA NACIONAL CENTRAL DE FORMACION SECRETARIAL,12 AVENIDA 9-27,GTM,Guatemala,Guatemala,,-90.50670449,14.63878376
GTM-000033,00-01-0175-46,ESCUELA NORMAL PARA MAESTROS DE EDUCACION MUSICAL JESUS MARIA ALVARADO,2A. CALLE 4-04,GTM,Guatemala,Guatemala,,-90.51478784,14.64686533
GTM-000034,00-01-0178-46,ESCUELA NACIONAL DE CIENCIAS COMERCIALES,10A. AVENIDA 9-42,GTM,Guatemala,Guatemala,,-90.5102133,14.63947173
GTM-000035,00-01-0203-45,INEB ADSCRITO AL INSTITUTO NACIONAL CENTRAL PARA VARONES,9A AVE. 9-27,GTM,Guatemala,Guatemala,,-90.51080777,14.63941492
GTM-000036,00-01-0203-46,INSTITUTO NACIONAL CENTRAL PARA VARONES,9A AVE. 9-27,GTM,Guatemala,Guatemala,,-90.51080777,14.63941492
GTM-000037,00-01-0206-45,INEB ADSC. INSTITUTO RAFAEL AQUECHE,"9A CALLE 2-36,",GTM,Guatemala,Guatemala,,-90.51788227,14.64069198
GTM-000038,00-01-0206-46,INSTITUTO NORMAL MIXTO RAFAEL AQUECHE,"9A CALLE 2-36,",GTM,Guatemala,Guatemala,,-90.51788227,14.64069198
GTM-000039,00-01-0207-45,INEB ADSCRITO INSTITUTO NORMAL MIXTO ÑRAFAEL AQUECHEÑ,9A CALLE 2-36,GTM,Guatemala,Guatemala,,-90.51788227,14.64069198
GTM-000040,00-01-0207-46,INSTITUTO NORMAL MIXTO RAFAEL AQUECHE,9A CALLE 2-36,GTM,Guatemala,Guatemala,,-90.51788227,14.64069198
GTM-000041,00-01-0208-45,INEB ADSCRITO AL INSTITUTO NORMAL MIXTO NOCTURNO,9A AVE. 9-27,GTM,Guatemala,Guatemala,,-90.51080777,14.63941492
GTM-000042,00-01-0208-46,INSTITUTO NORMAL MIXTO NOCTURNO,9A AVE. 9-27,GTM,Guatemala,Guatemala,,-90.51080777,14.63941492
GTM-000043,00-01-0332-42,EODP NO. 1 RAMONA GIL,2A. CALLE 4-28,GTM,Guatemala,Guatemala,,-90.51487315,14.64670364
GTM-000044,00-01-2469-46,ESCUELA NACIONAL CENTRAL DE CIENCIAS COMERCIALES,10A. AVENIDA 9-42,GTM,Guatemala,Guatemala,,-90.5102133,14.63947173
GTM-000045,00-01-6945-43,EOUM COMPLEJO ESCOLAR PARA LA PAZ,3A. AVENIDA 1-46,GTM,Guatemala,Guatemala,,-90.51637487,14.64835917
GTM-000046,00-01-7073-42,EODP NO.52,24 CALLE Y 3A. AV. C 24-24,GTM,Guatemala,Guatemala,,-90.51861702,14.62509008
GTM-000047,00-01-7115-43,ESCUELA OFICIAL URBANA PARA NIÑAS NO.7 REPUBLICA DE ARGENTINA,6A CALLE 2-20,GTM,Guatemala,Guatemala,,-90.51775277,14.64298989
GTM-000048,00-01-7124-42,EODP ANEXA EOUN NO.5 MIGUEL GARCIA GRANADOS,13 AVENIDA 4-78,GTM,Guatemala,Guatemala,,-90.50592496,14.64323623
GTM-000049,00-01-7369-45,INEB PARA SEÑORITAS VICTOR MANUEL DE LA ROCA SANTA CRUZ,3A. CALLE 1-33,GTM,Guatemala,Guatemala,,-90.51825668,14.64700179
GTM-000050,00-01-7400-42,EODP NO.68,AVENIDA BOLIVAR 25-00,GTM,Guatemala,Guatemala,,-90.52193455,14.62521464
GTM-000051,00-01-7573-46,ESCUELA NACIONAL DE FORMACION SECRETARIAL NO. 2,3A. CALLE 1-33,GTM,Guatemala,Guatemala,,-90.51825668,14.64700179
GTM-000052,00-01-7946-42,EODP NO.13 AMERICA,1A. AVENIDA 9-67,GTM,Guatemala,Guatemala,,-90.52205593,14.63754742
GTM-000053,00-01-8379-46,ESCUELA NACIONAL CENTRAL DE FORMACION SECRETARIAL,12 AVENIDA 9-27,GTM,Guatemala,Guatemala,,-90.50670449,14.63878376
GTM-000054,00-01-8763-42,JARDIN INFANTIL LICENCIADA ALICIA HERRERA DE BETANCOURTH,9A. AV. 20-65,GTM,Guatemala,Guatemala,,-90.5128873,14.62779223
GTM-000055,00-01-9181-42,EODP NO.4 DOMINGO FAUSTINO SARMIENTO,15 AVENIDA 3-30,GTM,Guatemala,Guatemala,,-90.50309271,14.64391248
GTM-000056,00-01-9811-42,EODP ANEXA A EOUM COMPLEJO ESCOLAR PARA LA PAZ,3A. AVENIDA 1-46,GTM,Guatemala,Guatemala,,-90.51637487,14.64835917
GTM-000057,00-02-0281-42,EODP NO.27 JOSEFINA ORELLANA,12 AVENIDA A 12-11,GTM,Guatemala,Guatemala,,-90.50373921,14.65811176
GTM-000058,00-02-0289-42,EODP ANEXA A ESCUELA LABORATORIO NO.1 RAYMOND H. RIGNALL,12 AVE. B 8-41,GTM,Guatemala,Guatemala,,-90.50365927,14.65397754
GTM-000059,00-02-0294-43,EOUM LABORATORIO NO.1 RAYMOND H. RIGNALL,12 AVE. B 8-41,GTM,Guatemala,Guatemala,,-90.50365927,14.65397754
GTM-000060,00-02-0307-45,INEB MIXTO ADRIAN ZAPATA,12 AVE. B 8-03,GTM,Guatemala,Guatemala,,-90.50409502,14.65291204
GTM-000061,00-02-0309-45,INSTITUTO NACIONAL MIXTO DE EDUCACION BASICA ADRIAN ZAPATA,12 AVE. B 8-03,GTM,Guatemala,Guatemala,,-90.50409502,14.65291204
GTM-000062,00-02-2201-43,EOUM NO.24 DELFINO SANCHEZ,12 AVE. B 8-41,GTM,Guatemala,Guatemala,,-90.50365927,14.65397754
GTM-000063,00-03-0328-42,EODP ANEXA A ESCUELA MANUEL MARCOS MARTINEZ,6A AVE. 27-36,GTM,Guatemala,Guatemala,,-90.52954893,14.6245807
GTM-000064,00-03-0336-43,EOUN NO.9 CRISTOBAL COLON,27 CALLE 2-19,GTM,Guatemala,Guatemala,,-90.52631118,14.62436395
GTM-000065,00-03-0337-43,EOUV NO.13 ALBERTO MEJIA,6A AVE. 27-36,GTM,Guatemala,Guatemala,,-90.52954893,14.6245807
GTM-000066,00-03-0338-43,EOUV NO.46 MANUEL MARCOS MARTINEZ,6A AVENIDA 27-36,GTM,Guatemala,Guatemala,,-90.52954893,14.6245807
GTM-000067,00-03-0339-43,EOUV NO.10 PEDRO DE BETHANCOURT,1A AVENIDA 23-13,GTM,Guatemala,Guatemala,,-90.52425643,14.62747045
GTM-000068,00-03-0340-43,EOUM NO.66 PEDRO BETHANCOURT,1A AVE. 23-13,GTM,Guatemala,Guatemala,,-90.52425643,14.62747045
GTM-000069,00-03-0341-43,EOUV NO.31 FRANCISCO VELA,8A. AVENIDA 37-85,GTM,Guatemala,Guatemala,,-90.5322434,14.61734679
GTM-000070,00-03-0343-43,EOUN NO.17 RAFAELA DEL AGUILA,8A AVE. 37-85,GTM,Guatemala,Guatemala,,-90.5322434,14.61734679
GTM-000071,00-03-0344-43,EOUM NO.460 SANTA LUISA,10A CALLE 10-33,GTM,Guatemala,Guatemala,,-90.5290798,14.64583411
GTM-000072,00-03-0345-43,EOUM RAFAEL ALVAREZ OVALLE,27 CALLE 2-19,GTM,Guatemala,Guatemala,,-90.52631118,14.62436395
GTM-000073,00-03-2206-42,EODP EL INCIENSO ANEXA A EORM COPAL POM,"6A CALLE FINAL 5-07, COLONIA EL INCIENSO",GTM,Guatemala,Guatemala,,-90.52648705,14.64515676
GTM-000074,00-03-4701-42,EODP ANEXA A EOUM NO.31 FRANCISCO VELA,8A. AVE 37-85,GTM,Guatemala,Guatemala,,-90.5322434,14.61734679
GTM-000075,00-03-4702-42,EODP ANEXA A EOUV NO.13 ALBERTO MEJIA,6A. AV. 27-36,GTM,Guatemala,Guatemala,,-90.52954893,14.6245807
GTM-000076,00-03-6896-43,EOUM,6A CALLE FINAL 5-07 COLONIA EL INCIENSO,GTM,Guatemala,Guatemala,,-90.52648705,14.64515676
GTM-000077,00-03-7133-43,EOUM NO. 460 SANTA LUISA,10 CALLE 10-33,GTM,Guatemala,Guatemala,,-90.5290798,14.64583411
GTM-000078,00-03-7367-42,EODP ANEXA EOUN NO.17 RAFAELA DEL AGUILA,8AV. 37-85,GTM,Guatemala,Guatemala,,-90.5322434,14.61734679
GTM-000079,00-03-7397-42,EODP ANEXA A EOUM NO. 460 SANTA LUISA,10 CALLE 10-33,GTM,Guatemala,Guatemala,,-90.5290798,14.64583411
GTM-000080,00-03-7551-42,EODP ANEXA A EOUN CRISTOBAL COLON,27 CALLE 2-19,GTM,Guatemala,Guatemala,,-90.52631118,14.62436395
GTM-000081,00-03-7740-43,EOUN NO.15 REPUBLICA DE CUBA,18 CALLE 2-46,GTM,Guatemala,Guatemala,,-90.52527812,14.63282614
GTM-000082,00-03-8217-43,EOUM NO.15 SIMON BOLIVAR,13 CALLE A 3-45,GTM,Guatemala,Guatemala,,-90.52527777,14.63740226
GTM-000083,00-03-8260-42,ESCUELA OFICIAL DE PARVULOS,13 CALLE 1-03,GTM,Guatemala,Guatemala,,-90.52273915,14.6370217
GTM-000084,00-03-9065-42,EODP JARDIN INFANTIL CENTROAMERICANO,27 CALLE 0-39,GTM,Guatemala,Guatemala,,-90.52631118,14.62436395
GTM-000085,00-03-9220-42,EODP ANEXA A EOUM NO. 47 RAFAEL ALVARES OVALLE,27 CALLE 2-19,GTM,Guatemala,Guatemala,,-90.52631118,14.62436395
GTM-000086,00-04-0373-42,EODP NO.42 DEL CENTRO DE BIENESTAR SOCIAL TERMINAL,4A. AVENIDA Y 6A. CALLE A ALTOS EL PORTALITO.,GTM,Guatemala,Guatemala,,-90.52048996,14.61752926
GTM-000087,00-05-0003-42,EODP ANEXA A EOUV NO. 6 JOSE FRANCISCO BARRUNDIA,27 AVE. A 23-65,GTM,Guatemala,Guatemala,,-90.50203434,14.62401014
GTM-000088,00-05-0377-42,EODP NO.67 DR. MANUEL AMADOR GUERRERO,41 AVE. 15-25 COLONIA JARDINES DE LA ASUNCION,GTM,Guatemala,Guatemala,,-90.49247562,14.63023833
GTM-000089,00-05-0378-42,EODP NO.6 HORACIO MANN,26 CALLE A 15-47,GTM,Guatemala,Guatemala,,-90.50740143,14.62225901
GTM-000090,00-05-0379-42,EODP NO.9 NATALIA GORRIZ DE MORALES,23 CALLE 28-24,GTM,Guatemala,Guatemala,,-90.50201371,14.62447786
GTM-000091,00-05-0381-42,ESCUELA NACIONAL DE PARVULOS 20 DE OCTUBRE,28 AVE. 30-90,GTM,Guatemala,Guatemala,,-90.5039108,14.61752389
GTM-000092,00-05-0382-42,EODP NO.23 ALICIA AGUILAR CASTRO,"33 AVENIDA 27-10, COLONIA SANTA ANA",GTM,Guatemala,Guatemala,,-90.4988929,14.62478764
GTM-000093,00-05-0383-42,EODP NO.73 DEL CENTRO DE BIENESTAR SOCIAL,13 AVENIDA 30-25,GTM,Guatemala,Guatemala,,-90.50678521,14.61767217
GTM-000094,00-05-0384-42,EODP ANEXA A EOUN NO. 49 JESUS CASTRO GOMEZ,27 AVE. A 24-27,GTM,Guatemala,Guatemala,,-90.5021464,14.62348367
GTM-000095,00-05-0385-42,EODP ANEXA A EOUN NO.88 ROMULO GALLEGOS,43 AVE. 10-19 COLONIA FERROCARRILERA,GTM,Guatemala,Guatemala,,-90.49256287,14.63085958
GTM-000096,00-05-0386-42,EODP ANEXA A EOUN NO.73 ELISA MOLINA DE STAHL,20 CALLE 43-01 COLONIA LA CHACARA,GTM,Guatemala,Guatemala,,-90.49234762,14.62685883
GTM-000097,00-05-0387-42,EODP ANEXA A LA EOUN NO. 46 DOLORES CONTRERAS DEL AGUILA,34 AVE. 13-73 COLONIA ABRIL,GTM,Guatemala,Guatemala,,-90.49732915,14.63248054
GTM-000098,00-05-0389-42,"EODP ANEXA A LA UNIDAD ESCOLAR 25 DE JUNIO , COMPLEJO PARA LA PAZ # 2",26 AVENIDA 32-00,GTM,Guatemala,Guatemala,,-90.50491846,14.61653423
GTM-000099,00-05-0390-42,EODP ANEXA A EOUM NO.41 ALBERTO MASFERRER,26 AVE. 32-00,GTM,Guatemala,Guatemala,,-90.50491846,14.61653423
GTM-000100,00-05-0405-43,EOUV NO.26 REPUBLICA DE NICARAGUA,34 AVE. 13-70,GTM,Guatemala,Guatemala,,-90.49732915,14.63248054
GTM-000101,00-05-0406-43,EOUV NO.20 REPUBLICA DEL ECUADOR,23 CALLE A 35-56,GTM,Guatemala,Guatemala,,-90.49822855,14.62375658
GTM-000102,00-05-0407-43,"EOUM NO.55 HUMBERTO CARRILLO RAMIREZ , COMPLEJO PARA LA PAZ NO.2 REPUBLICA DEL PERU",26 AVENIDA 32-00,GTM,Guatemala,Guatemala,,-90.50491846,14.61653423
GTM-000103,00-05-0408-43,EOUV NO.18 JOSE ANTONIO LIENDO Y GOICOECHEA,24 AVE. 25-51 LA PALMITA,GTM,Guatemala,Guatemala,,-90.50379034,14.62249361
GTM-000104,00-05-0409-43,"EOUM NO.44 UNIDAD ESCOLAR 25 DE JUNIO , COMPLEJO PARA LA PAZ NO.2",26 AVENIDA 32-00,GTM,Guatemala,Guatemala,,-90.50491846,14.61653423
GTM-000105,00-05-0410-43,EOUV NO.69 ESTADOS UNIDOS DE AMERICA,41 AVE. Y 12 CALLE B JARDINES DE LA ASUNCION,GTM,Guatemala,Guatemala,,-90.49221043,14.63073654
GTM-000106,00-05-0411-43,EOUM NO.81 REPUBLICA DEL ECUADOR,23 CALLE A 35-56 COLONIA ARRIVILLAGA GUATEMALA,GTM,Guatemala,Guatemala,,-90.49822855,14.62375658
GTM-000107,00-05-0412-43,EOUV NO.6 JOSE FRANCISCO BARRUNDIA,27 AVE. A 23-65,GTM,Guatemala,Guatemala,,-90.50203434,14.62401014
GTM-000108,00-05-0413-43,EOUV NO.45 DR. SALVADOR MENDIETA,24 AVE. 25-51,GTM,Guatemala,Guatemala,,-90.50379034,14.62249361
GTM-000109,00-05-0414-43,EOUN NO.46 DOLORES CONTRERAS DEL AGUILA,34 AVENIDA 13-73 COLONIA ABRIL,GTM,Guatemala,Guatemala,,-90.49732915,14.63248054
GTM-000110,00-05-0415-43,EOUN NO.73 ELISA MOLINA DE STAHL,20 CALLE 43-01 COLONIA LA CHACARA,GTM,Guatemala,Guatemala,,-90.49234762,14.62685883
GTM-000111,00-05-0416-43,EOUN NO.39 REPUBLICA DE CHINA,27 AVE. A 23-65,GTM,Guatemala,Guatemala,,-90.50203434,14.62401014
GTM-000112,00-05-0417-43,EOUN NO.49 JESUS CASTRO GOMEZ,27 AVE. A 24-27,GTM,Guatemala,Guatemala,,-90.5021464,14.62348367
GTM-000113,00-05-0418-43,"EOUM ALBERTO MASFERRER, COMPLEJO PARA LA PAZ NO.2 REPUBLICA DEL PERU",26 AVENIDA 32-00,GTM,Guatemala,Guatemala,,-90.50491846,14.61653423
GTM-000114,00-05-0419-43,EOUM NO.33 AMALIA SAMAYOA AGUILAR,29 AVE. 27-21,GTM,Guatemala,Guatemala,,-90.50210299,14.62115889
GTM-000115,00-05-0420-43,EOUN NO.76  REPUBLICA DE LIBANO ,23 CALLE 32-40,GTM,Guatemala,Guatemala,,-90.49998899,14.62437886
GTM-000116,00-05-0421-43,EOUN NO.88 ROMULO GALLEGOS,43 AVE. 10-19 COLONIA FERROCARRILERO,GTM,Guatemala,Guatemala,,-90.49256287,14.63085958
GTM-000117,00-05-0422-43,"EOUN NO.30 MIGUEL LARREINAGA , COMPLEJO PARA LA PAZ NO.2 25 DE JUNIO",26 AVENIDA 32-00,GTM,Guatemala,Guatemala,,-90.50491846,14.61653423
GTM-000118,00-05-0424-43,EOUN NO.102 REPUBLICA DE LIBANO,23 CALLE 32-40,GTM,Guatemala,Guatemala,,-90.49998899,14.62437886
GTM-000119,00-05-0425-43,EOUN NO.37 EUGENIO MARIA DE HOSTOS,27 AVENIDA A 24-27,GTM,Guatemala,Guatemala,,-90.5021464,14.62348367
GTM-000120,00-05-0426-43,EOUM NO.87 ABEL CARRILLO RAMIREZ,43 AVENIDA 10-19 COLONIA FERROCARRILERO,GTM,Guatemala,Guatemala,,-90.49256287,14.63085958
GTM-000121,00-05-0427-43,EOUM NO.156 NIÑOS DE NORUEGA,32 AVENIDA FINAL Y 20 CALLE COLONIA SAN JOSE EL ESFUERZO,GTM,Guatemala,Guatemala,,-90.5001024,14.6288392
GTM-000122,00-05-0429-43,EOUM NO.126 ANDRES BELLO,41 AVE. Y 12 CALLE B JARDINES DE LA ASUNCION,GTM,Guatemala,Guatemala,,-90.49221043,14.63073654
GTM-000123,00-05-0430-43,"EOUM NO.30 REPUBLICA DEL PERU , COMPLEJO PARA LA PAZ NO.2",26 AVENIDA 32-00,GTM,Guatemala,Guatemala,,-90.50491846,14.61653423
GTM-000124,00-05-0431-43,EOUM NO.80 ELISA MOLINA DE STHAL,20 CALLE 43-01,GTM,Guatemala,Guatemala,,-90.49234762,14.62685883
GTM-000125,00-05-0448-45,CENTRO DE USOS MULTIPLES DR. CARLOS GONZALEZ ORELLANA,28 AVE. A 33-04,GTM,Guatemala,Guatemala,,-90.50433977,14.61486348
GTM-000126,00-05-0449-45,INEB EXP. CON ORIENTACION OCUPACIONAL DR. JOSE MATOS PACHECO,42 AVE. 21-00 ZONA 5,GTM,Guatemala,Guatemala,,-90.49448324,14.62583339
GTM-000127,00-05-0454-46,INSTITUTO NACIONAL DE FORMACION TECNICA,28 AVE. A 33-50,GTM,Guatemala,Guatemala,,-90.50433977,14.61486348
GTM-000128,00-05-2487-43,"EOUN NO.56 CANDIDA FRANCO ROSALES, COMPLEJO PARA LA PAZ NO.2 REPUBLICA DEL PERU",26 AVENIDA 32-00,GTM,Guatemala,Guatemala,,-90.50491846,14.61653423
GTM-000129,00-05-3100-43,EOUM NO. 157 NIÑOS DE NORUEGA,"20 CALLE 32 AVE FINAL, COL SAN JOSE EL ESFUERZO",GTM,Guatemala,Guatemala,,-90.5001024,14.6288392
GTM-000130,00-05-3104-42,NO.156 NIÑOS DE NORUEGA,"32 AVE. 20 CALLE FINAL , COL ESFUERZO,",GTM,Guatemala,Guatemala,,-90.5001024,14.6288392
GTM-000131,00-05-7799-45,ESCUELA MILITAR DE MUSICA MAESTRO RAFAEL ALVAREZ OVALLE,23 AVENIDA FINAL 32-36,GTM,Guatemala,Guatemala,,-90.50568684,14.61635042
GTM-000132,00-05-7800-42,EODP ANEXA A EOUN NO.37 EUGENIO MARIA DE HOSTOS,27 AVENIDA A 24-27,GTM,Guatemala,Guatemala,,-90.5021464,14.62348367
GTM-000133,00-05-8194-45,INEB PARA VARONES TECUN UMAN,14 AVE. 25-07 COLONIA 25 DE JUNIO,GTM,Guatemala,Guatemala,,-90.50804927,14.62322351
GTM-000134,00-05-8661-42,EODP ANEXA A EOUN NO.76 REPUBLICA DE LIBANO,23 CALLE 32-40,GTM,Guatemala,Guatemala,,-90.49998899,14.62437886
GTM-000135,00-05-8941-46,ESCUELA MILITAR DE MUSICA MAESTRO RAFAEL ALVAREZ OVALLE,23 AVENIDA FINAL 32-36,GTM,Guatemala,Guatemala,,-90.50568684,14.61635042
GTM-000136,00-06-0003-42,EODP ANEXA A EOUV NO. 72 REPUBLICA DE BELGICA,16 AVENIDA 18 CALLE C PROYECTO 4-4,GTM,Guatemala,Guatemala,,-90.4916874,14.66516639
GTM-000137,00-06-0460-42,EODP NO.35 JUAN JOSE AREVALO,18 AVENIDA 25-29 PROYECTO 4-3,GTM,Guatemala,Chinautla,,-90.48456259,14.67321736
GTM-000138,00-06-0462-42,EODP NO.50 DEL CENTRO DE BIENESTAR SOCIAL LA PARROQUIA,CALLE MARTI Y 11 AVE. 2DO. NIVEL MERCADO DE LA PARROQUIA,GTM,Guatemala,Guatemala,,-90.50307999,14.65077808
GTM-000139,00-06-0463-42,EODP NO.29 ULISES ROJAS,"21 AVENIDA 15-07, BARRIO SAN ANTONIO",GTM,Guatemala,Guatemala,,-90.48996802,14.65817126
GTM-000140,00-06-0464-42,EODP NO.3 ENRIQUE PESTALOZZI,24 AV. 1-31 COLONIA LOS ANGELES,GTM,Guatemala,Guatemala,,-90.49180062,14.64472148
GTM-000141,00-06-0465-42,ESCUELA OFICIAL DE PARVULOS NO.44,2A. CALLE A 19-33,GTM,Guatemala,Guatemala,,-90.49538899,14.64738904
GTM-000142,00-06-0466-42,EODP JUAN AMOS COMENIO,15 AVENIDA B Y 11 CALLE FINAL,GTM,Guatemala,Guatemala,,-90.49565277,14.65602826
GTM-000143,00-06-0467-42,EODP NO.33 ROSA Y CAROLINA AGAZZI,16 AVE. 18-71 PROYECTO 4-4,GTM,Guatemala,Guatemala,,-90.49118321,14.66553795
GTM-000144,00-06-0478-43,EOUV NO.3 ALEJANDRO MARURE,15 AVE. 3-28,GTM,Guatemala,Guatemala,,-90.49965196,14.64994173
GTM-000145,00-06-0479-43,EOUV NO.56 DR. RODOLFO ROBLES,21 AVENIDA 18-26 BARRIO SAN ANTONIO,GTM,Guatemala,Guatemala,,-90.48935412,14.65895539
GTM-000146,00-06-0480-43,EOUV NO.72 REPUBLICA DE BELGICA,16 AVENIDA 18-73 PROYECTO 4-4,GTM,Guatemala,Guatemala,,-90.4916874,14.66516639
GTM-000147,00-06-0481-43,EOUN NO.21 RAFAEL LANDIVAR,1A CALLE B Y 23 AVENIDA FINAL,GTM,Guatemala,Guatemala,,-90.49193968,14.64510229
GTM-000148,00-06-0482-42,EOUV NO.37 FRANCISCO A. DE FUENTES Y GUZMAN,23 AVENIDA 1-31,GTM,Guatemala,Guatemala,,-90.49193968,14.64510229
GTM-000149,00-06-0482-43,EOUV NO.37 FRANCISCO ANTONIO DE FUENTES Y GUZMAN,23 AV. 1-31,GTM,Guatemala,Guatemala,,-90.49193968,14.64510229
GTM-000150,00-06-0483-43,EOUV NO.24 FRAY BARTOLOME DE LAS CASAS,2A CALLE B 19-60,GTM,Guatemala,Guatemala,,-90.49387924,14.64737226
GTM-000151,00-06-0484-43,EOUV NO.22 REPUBLICA DE MEXICO,15 AVE. 1-42,GTM,Guatemala,Guatemala,,-90.50033255,14.64750329
GTM-000152,00-06-0485-42,EODP ANEXA A EOUV NO. 117 MARIA CRISTINA BENNET DE ROLZ,21 CALLE C 23-85 PROYECTO 4-10,GTM,Guatemala,Guatemala,,-90.48356012,14.66672901
GTM-000153,00-06-0485-43,EOUV MARIA CRISTINA BENNETT DE ROLZ,21 CALLE C 23-85 PROYECTO 4-10,GTM,Guatemala,Guatemala,,-90.48356012,14.66672901
GTM-000154,00-06-0486-43,EOUV NO.68 DR. LUIS MARTINEZ MONT,18 AVE. 26-15 PROYECTO 4-3,GTM,Guatemala,Chinautla,,-90.48432121,14.67348258
GTM-000155,00-06-0487-43,EOUM NO.39 SIMON BERGAÑO Y VILLEGAS,15 AVE. 3-28,GTM,Guatemala,Guatemala,,-90.49965196,14.64994173
GTM-000156,00-06-0489-43,EOUN NO.40 MARIA CRISTINA BENNETT DE ROLZ,21 CALLE C 23-85 PROYECTO 4-10,GTM,Guatemala,Guatemala,,-90.48356012,14.66672901
GTM-000157,00-06-0490-43,EOUN NO.4 JUSTO RUFINO BARRIOS,13 AVE. 1-28,GTM,Guatemala,Guatemala,,-90.50235637,14.64801239
GTM-000158,00-06-0491-43,EOUN NO.57 ERNESTINA MENA VDA DE REITZ,21 AVE. 14-16,GTM,Guatemala,Guatemala,,-90.49037218,14.65742342
GTM-000159,00-06-0492-43,EOUN NO. 29 REPUBLICA DOMINICANA,8A CALLE 13-44,GTM,Guatemala,Guatemala,,-90.49740174,14.63262248
GTM-000160,00-06-0493-43,EOUN NO.82 RUBEN VILLAGRAN PAUL,18 AVE. 26-15 PROYECTO 4-3,GTM,Guatemala,Chinautla,,-90.48432121,14.67348258
GTM-000161,00-06-0494-43,EOUM NO. 23 ESPAÑA,13 AVENIDA 1-28,GTM,Guatemala,Guatemala,,-90.50235637,14.64801239
GTM-000162,00-06-0495-43,EOUN NO.95 REPUBLICA DE AUSTRIA,"16 AVENIDA 18-51, COLONIA PROYECTO 4-4",GTM,Guatemala,Guatemala,,-90.4916874,14.66516639
GTM-000163,00-06-0496-43,EOUN NO.59 RAFAEL AREVALO MARTINEZ,21 AVE. 14-16 BARRIO SAN ANTONIO,GTM,Guatemala,Guatemala,,-90.49037218,14.65742342
GTM-000164,00-06-0498-43,EOUM NO.150 ASENTAMIENTO ROOSEVELT,13 AVENIDA B 13-20 COLONIA .EL QUINTANAL,GTM,Guatemala,Guatemala,,-90.49835034,14.65967573
GTM-000165,00-06-0499-43,EOUM CARLOS BENJAMIN PAIZ AYALA,"CALZADA JOSE MILLA Y VIDAURRE, 27 AVENIDA",GTM,Guatemala,Guatemala,,-90.49071668,14.63588336
GTM-000166,00-06-0500-43,EOUM NO.274,12 CALLE 12-23 COLONIA MARTINICO II,GTM,Guatemala,Guatemala,,-90.49959212,14.65891892
GTM-000167,00-06-0501-43,EOUM NO.47 MIGUEL DE CERVANTES SAAVEDRA,15 AVE. 1-42,GTM,Guatemala,Guatemala,,-90.50033255,14.64750329
GTM-000168,00-06-0517-44,ESCUELA OFICIAL PARA ADULTOS NO.15 MERCEDES RODAS DE LEON,21 AVE. 18-26,GTM,Guatemala,Guatemala,,-90.48935412,14.65895539
GTM-000169,00-06-0520-45,INEBE CON ORIENTACION OCUPACIONAL ENRIQUE GOMEZ CARRILLO,13 AVENIDA Y 15 CALLE FINAL,GTM,Guatemala,Guatemala,,-90.49783643,14.66229423
GTM-000170,00-06-0526-46,ESCUELA NACIONAL DE CIENCIAS COMERCIALES ROMULO GALLEGOS FREIRE,15 CALLE Y 13 AVENIDA,GTM,Guatemala,Guatemala,,-90.49783643,14.66229423
GTM-000171,00-06-2762-42,"EODP ANEXA A EOUM JM, CARLOS BENJAMIN PAIZ AYALA",CALZADA JOSE MILLA Y VIDAURRE Y 27 AVENIDA,GTM,Guatemala,Guatemala,,-90.49071668,14.63588336
GTM-000172,00-06-4197-43,EOUN NO.80 ANGELINA ACUÑA,12 CALLE 12-23,GTM,Guatemala,Guatemala,,-90.49959212,14.65891892
GTM-000173,00-06-8437-45,INEB POR MADUREZ Y BACHILLERATO EN CC.LL POR MADUREZ ADSC. POLICIA NACIONAL CIVIL,21AV 12-17,GTM,Guatemala,Guatemala,,-90.49170271,14.65495579
GTM-000174,00-07-0008-42,EODP ANEXA A EOUM JOSE BONILLA RUANO,13 AVENIDA 5-18 COLONIA QUINTA SAMAYOA,GTM,Guatemala,Guatemala,,-90.54649162,14.62552098
GTM-000175,00-07-0011-42,EODP ANEXA A EOUV NO.23 RAFAEL MAURICIO,38 CALLE 33-92 AMPARO 1,GTM,Guatemala,Guatemala,,-90.52985699,14.65914533
GTM-000176,00-07-0529-42,EODP NO.66 HUGO TULIO BUCARO,31 AVE. C 6-08 COLONIA CENTRO AMERICA,GTM,Guatemala,Guatemala,,-90.55588909,14.63224973
GTM-000177,00-07-0530-42,EODP NO.149 4 DE FEBRERO,29 AVENIDA C 23-58 COLONIA 4 DE FEBRERO,GTM,Guatemala,Guatemala,,-90.53850393,14.64469492
GTM-000178,00-07-0531-42,EODP NO.14 VICENTA LAPARRA DE LA CERDA,8A AVE. 12-10 COLONIA CASTILLO LARA,GTM,Guatemala,Guatemala,,-90.5382055,14.62384637
GTM-000179,00-07-0532-42,EODP NO.65,6A CALLE 11-44 COLONIA QUINTANA SAMAYOA,GTM,Guatemala,Guatemala,,-90.54457484,14.62423479
GTM-000180,00-07-0534-42,EODP NO.70 MADRE DORMIDA,"31 AVENIDA C, COLONIA MADRE DORMIDA, BETHANIA",GTM,Guatemala,Guatemala,,-90.53183134,14.6495312
GTM-000181,00-07-0535-42,EODP NO.64,34 CALLE Y 11 AVENIDA B,GTM,Guatemala,Guatemala,,-90.53028118,14.65206236
GTM-000182,00-07-0536-42,EODP ANEXA A PLAN EDUCATIVO 4 DE FEBRERO,29 AVE. C 23-58 COLONIA 4 DE FEBRERO,GTM,Guatemala,Guatemala,,-90.53850393,14.64469492
GTM-000183,00-07-0537-42,EODP ANEXA A EOUM NO.122 JAPON,2A AVE. Y 4A CALLE COLONIA LA VERBENA,GTM,Guatemala,Guatemala,,-90.53720884,14.62946517
GTM-000184,00-07-0538-42,EODP ANEXA A EOUM NO.901 AMPARO I,33 AVE. 36-60 SAKERTI II,GTM,Guatemala,Guatemala,,-90.52941299,14.65731504
GTM-000185,00-07-0540-42,EODP ANEXA A EOUM NO.60 LUZ VALLE,1A AVE. 6-79 COLONIA LANDIVAR,GTM,Guatemala,Guatemala,,-90.53508302,14.61749423
GTM-000186,00-07-0541-42,EODP ANEXA A EOUM NO.441 LAS GALERAS,38 CALLE 33-20 COLONIA EL AMPARO,GTM,Guatemala,Guatemala,,-90.52917018,14.65863111
GTM-000187,00-07-0542-42,EODP ANEXA A EODP NO.516 KJELL EUGENIO LAUGERUD,ANILLO PERIFERICO,GTM,Guatemala,Guatemala,,-90.53958593,14.64605554
GTM-000188,00-07-0567-43,EOUV NO.60 ABRAHAM ORANTES Y ORANTES,AVE. MOCTEZUMA 31-09 COLONIA BETHANIA,GTM,Guatemala,Guatemala,,-90.53448715,14.65034148
GTM-000189,00-07-0568-43,EOUM NO.42 BELICE,8A. AVE. A 11-31 COLONIA CASTILLO LARA,GTM,Guatemala,Guatemala,,-90.5386978,14.6230977
GTM-000190,00-07-0569-43,EOUV NO.48 25 DE SEPTIEMBRE,6A. CALLE A 14-59 COLONIA QUINTA SAMAYOA,GTM,Guatemala,Guatemala,,-90.54749652,14.62746079
GTM-000191,00-07-0570-43,EOUV NO.32 REPUBLICA ORIENTAL DEL URUGUAY,"8A. AVENIDA A 11-31 COLONIA CASTILLO LARA,",GTM,Guatemala,Guatemala,,-90.5386978,14.6230977
GTM-000192,00-07-0571-43,EOUV NO.23 RAFAEL MAURICIO,38 CALLE 33-92 AMPARO I,GTM,Guatemala,Guatemala,,-90.52985699,14.65914533
GTM-000193,00-07-0572-43,EOUV NO.58 VENANCIO RAQUEL PALACIOS CORDON,ANILLO PERIFERICO COLONIA KJELL LAUGERUD,GTM,Guatemala,Guatemala,,-90.53958593,14.64605554
GTM-000194,00-07-0573-43,EOUM NO.36 JOSE MARTI,1A. AVENIDA 6-79 ZONA 7 COLONIA LANDIVAR,GTM,Guatemala,Guatemala,,-90.53508302,14.61749423
GTM-000195,00-07-0574-43,EOUM DAVID VELA,31 AVE. C 5-56 COLONIA CENTRO AMERICA,GTM,Guatemala,Guatemala,,-90.55662902,14.63218117
GTM-000196,00-07-0575-43,EOUM NO.55 SARA CERNA ZEPEDA,31 AVE. C 5-56 COLONIA CENTRO AMERICA,GTM,Guatemala,Guatemala,,-90.55662902,14.63218117
GTM-000197,00-07-0576-43,ESCUELA NACIONAL URBANA PARA NIÑAS NO. 120 REPUBLICA DE COREA,8A AVE. 13-06 COLONIA CASTILLO LARA,GTM,Guatemala,Guatemala,,-90.5382113,14.6238317
GTM-000198,00-07-0577-43,EOUN NO.52 EMMA GONZALEZ DE LOPEZ,13 AVE. 5-18,GTM,Guatemala,Guatemala,,-90.54649162,14.62552098
GTM-000199,00-07-0578-43,EOUN NO.70 DELIA LUZ DE CASTELLANOS,11 CALLE 12-60 COLONIA CASTILLO LARA,GTM,Guatemala,Guatemala,,-90.54274977,14.6281302
GTM-000200,00-07-0579-43,EOUN NO.43 PEDRO JOSE VALENZUELA,8A AVE. A 13-06 COLONIA CASTILLO LARA,GTM,Guatemala,Guatemala,,-90.5382113,14.6238317
GTM-000201,00-07-0580-43,EOUM NO.92 MIGUEL ANGEL ASTURIAS,AVE. MOCTEZUMA 31-09 COLONIA BETHANIA,GTM,Guatemala,Guatemala,,-90.5341744,14.65066729
GTM-000202,00-07-0581-43,EOUM NO.122 JAPON,2A AVE. Y 4A CALLE COLONIA LA VERBENA,GTM,Guatemala,Guatemala,,-90.53720884,14.62946517
GTM-000203,00-07-0582-43,EOUM NO.74 GABRIEL ARRIOLA PORRES,12 AVENIDA 05-45 COLONIA QUINTA SAMAYOA ZONA 7,GTM,Guatemala,Guatemala,,-90.54541337,14.62502679
GTM-000204,00-07-0584-43,EOUM NO.901 AMPARO I,33 AVE. 36-60 COLONIA SAKERTI II,GTM,Guatemala,Guatemala,,-90.52941299,14.65731504
GTM-000205,00-07-0585-43,EOUM NO.60 LUZ VALLE,1A AVE. 6-79 COLONIA LANDIVAR,GTM,Guatemala,Guatemala,,-90.53508302,14.61749423
GTM-000206,00-07-0586-43,EOUM GUERNICA,31 AVENIDA C COLONIA SANTA ELENA I,GTM,Guatemala,Guatemala,,-90.55152462,14.64188573
GTM-000207,00-07-0587-43,EOUM NO.71 FRANKLIN DELANO ROOSEVELT,CALZADA SAN JUAN 40-00 EL RODEO,GTM,Guatemala,Guatemala,,-90.5653779,14.63989411
GTM-000208,00-07-0589-43,EOUM NO.85,30 AVENIDA D 13-49 CIUDAD DE PLATA,GTM,Guatemala,Guatemala,,-90.55051293,14.63754248
GTM-000209,00-07-0590-43,EOUN NO 61 ABRAHAM ORANTES Y ORANTES,AVE. MOCTEZUMA 31-09 COLONIA BETHANIA,GTM,Guatemala,Guatemala,,-90.53448715,14.65034148
GTM-000210,00-07-0591-43,EOUM NO.443 MARIO MARTINEZ DE LEJARZA,33 AVE. 24-31 COLONIA BETHANIA,GTM,Guatemala,Guatemala,,-90.53629974,14.64657173
GTM-000211,00-07-0592-43,EOUM NO.153 SAKERTI,35 CALLE C 33-43 COLONIA SAKERTI,GTM,Guatemala,Guatemala,,-90.53145005,14.65541579
GTM-000212,00-07-0593-43,EOUM NO.149 4 DE FEBRERO,29 AV. C 23-58 COLONIA 4 DE FEBRERO,GTM,Guatemala,Guatemala,,-90.53850393,14.64469492
GTM-000213,00-07-0594-43,EOUM NO.904 COLONIA EL GRANIZO B,52 CALLE Y 32 AVENIDA SECTOR III,GTM,Guatemala,Chinautla,,-90.5229699,14.67051311
GTM-000214,00-07-0596-42,EODP ANEXA A EOUM NO.86 ELENA GUERRA DE SANDOVAL,12 AVENIDA Y 6A. CALLE A COLONIA QUINTA SAMAYOA,GTM,Guatemala,Guatemala,,-90.54541337,14.62502679
GTM-000215,00-07-0596-43,EOUM NO.86 ELENA GUERRA DE SANDOVAL,12 AVE. Y 6A CALLE A COLONIA QUINTA SAMAYOA,GTM,Guatemala,Guatemala,,-90.54541337,14.62502679
GTM-000216,00-07-0597-43,EOUM NO.441 LAS GALERAS,38 CALLE 33-20 COLONIA EL AMPARO,GTM,Guatemala,Guatemala,,-90.52917018,14.65863111
GTM-000217,00-07-0598-43,EOUM NO.158 KJELL EUGENIO LAUGERUD,ANILLO PERIFERICO,GTM,Guatemala,Guatemala,,-90.53958593,14.64605554
GTM-000218,00-07-0599-43,EOUM ASENTAMIENTO PATRONATO ANTIALCOHOLICO,38 CALLE 33-92 COLONIA EL AMPARO I,GTM,Guatemala,Guatemala,,-90.52985699,14.65914533
GTM-000219,00-07-0600-43,EOUM PLAN INTERNACIONAL,34 CALLE 11-23 COLONIA ALIDA ESPAÑA,GTM,Guatemala,Guatemala,,-90.53062209,14.65252211
GTM-000220,00-07-0601-43,EOUM NO.135 PEDRO ANTONIO ZEA,11 CALLE 12-60 COLONIA CASTILLO LARA,GTM,Guatemala,Guatemala,,-90.54274977,14.6281302
GTM-000221,00-07-0602-43,EOUM NO.52 JOSE MARIA BONILLA RUANO,13 AVE. 5-18 COLONIA QUINTA SAMAYOA,GTM,Guatemala,Guatemala,,-90.54649162,14.62552098
GTM-000222,00-07-0603-43,EOUM NO.71 FRANKLIN DELANO ROOSEVELT,CALZADA SAN JUAN 40-00 EL RODEO,GTM,Guatemala,Guatemala,,-90.5653779,14.63989411
GTM-000223,00-07-0604-43,EOUN NO.50 INDOAMERICANA,AVE. MOCTEZUMA 31-09 BETHANIA CENTRAL,GTM,Guatemala,Guatemala,,-90.5341744,14.65066729
GTM-000224,00-07-0632-43,EOUM PLAN EDUCATIVO 4 DE FEBRERO,29 AVE. C 23-58 COLONIA 4 DE FEBRERO ANILLO PERIFERICO,GTM,Guatemala,Guatemala,,-90.53850393,14.64469492
GTM-000225,00-07-0634-44,EOPA NO.31 QUINTA SAMAYOA,13 AVE. 5-18 COLONIA QUINTA SAMAYOA,GTM,Guatemala,Guatemala,,-90.54649162,14.62552098
GTM-000226,00-07-0635-44,EOPA NO.24 ALBERTO VELASQUEZ,1A AVE. Y 7A CALLE,GTM,Guatemala,Guatemala,,-90.53508302,14.61749423
GTM-000227,00-07-0638-44,EOPA NO.5 FEDERICO HERNANDEZ DE LEON,31 AVE. C 5-56 COLONIA CENTROAMERICA,GTM,Guatemala,Guatemala,,-90.55662902,14.63218117
GTM-000228,00-07-0639-45,INEB MIGUEL GARCIA GRANADOS,AVE. MOCTEZUMA 31-02 COLONIA BETHANIA,GTM,Guatemala,Guatemala,,-90.53490734,14.64995229
GTM-000229,00-07-0640-45,INSTITUTO NACIONAL EXPERIMENTAL DE EDUCACION BASICA DR. CARLOS FEDERICO MORA,CALZADA SAN JUAN 32-50,GTM,Guatemala,Guatemala,,-90.55754702,14.63251108
GTM-000230,00-07-0641-45,INEB MIGUEL GARCIA GRANADOS,"AVE. MOCTEZUMA 31-02 , COLONIA BETHANIA",GTM,Guatemala,Guatemala,,-90.53490734,14.64995229
GTM-000231,00-07-0651-46,ESCUELA NACIONAL DE CIENCIAS COMERCIALES NO.2,CALZADA SAN JUAN 32-50,GTM,Guatemala,Guatemala,,-90.55754702,14.63251108
GTM-000232,00-07-2233-43,EOUM NO.144 MARIA LUISA ARAGON,14 CALLE Y 2A AVE. COLONIA LA VERBENA,GTM,Guatemala,Guatemala,,-90.53720884,14.62946517
GTM-000233,00-07-2500-43,EOUM NO.40 JUAN DIEGUEZ OLAVERRI,30 AV D 13-49 CIUDAD DE PLATA,GTM,Guatemala,Guatemala,,-90.55051293,14.63754248
GTM-000234,00-07-2515-42,EODP ANEXA A EOUM GUERNICA,31 AV C COLONIA SANTA ELENA I,GTM,Guatemala,Guatemala,,-90.55152462,14.64188573
GTM-000235,00-07-4198-43,EOUM NO.42 AGUSTIN MENCOS FRANCO,33AV 24-31 COLONIA LA BETHANIA,GTM,Guatemala,Guatemala,,-90.53629974,14.64657173
GTM-000236,00-07-4359-42,COLEGIO JARDIN INFANTIL MUNICIPAL LOS NIÑOS DE SANTA CLARA,13 CALLE 3-10 COLONIA LANDIVAR,GTM,Guatemala,Guatemala,,-90.53424499,14.62370101
GTM-000237,00-07-4360-42,COLEGIO INFANTIL MUNICIPAL SANTA ANA,14 CALLE 8-70 COLONIA CASTILLO LARA,GTM,Guatemala,Guatemala,,-90.53791155,14.62438129
GTM-000238,00-07-6906-42,EODP ANEXA A EOU PARA VARONES NO.49 25 DE SEPTIEMBRE,6A.CALLE A 14-59 COLONIA QUINTA SAMAYOA,GTM,Guatemala,Guatemala,,-90.54749652,14.62746079
GTM-000239,00-07-7806-42,EODP ANEXA A EOUM NO.92 MIGUEL ANGEL ASTURIAS,AV. MOCTEZUMA 31-09 COLONIA BETHANIA,GTM,Guatemala,Guatemala,,-90.5341744,14.65066729
GTM-000240,00-07-8196-42,EOUN ANEXA A EOUM ABRAHAM ORANTES Y ORANTES,"AVENIDA MONTEZUMA 31-09, COLONIA BETHANIA",GTM,Guatemala,Guatemala,,-90.5341744,14.65066729
GTM-000241,00-07-8680-42,EODP ANEXA A EOUM NO.71 FRANKLIN DELANO ROOSEVELT,"CALZADA SAN JUAN 40-00, EL RODEO",GTM,Guatemala,Guatemala,,-90.5653779,14.63989411
GTM-000242,00-07-8687-42,EODP ANEXA A EOUV NO.60 ABRAHAM ORANTES Y ORANTES,AVENIDA MOCTEZUMA 31-09 COLONIA BETHANIA,GTM,Guatemala,Guatemala,,-90.53448715,14.65034148
GTM-000243,00-07-8688-42,EODP ANEXA A EOUM NO. 443 MARIO MARTINEZ DE LEJARZA,"33 AVENIDA 24-31, COLONIA BETHANIA",GTM,Guatemala,Guatemala,,-90.53629974,14.64657173
GTM-000244,00-07-8752-42,EODP ANEXA A EOUM NO.71 FRANKLIN DELANO ROOSEVELT,"CALZADA SAN JUAN 40-00, EL RODEO",GTM,Guatemala,Guatemala,,-90.5653779,14.63989411
GTM-000245,00-07-9158-42,EODP ANEXA A EOUM NO.42 AGUSTIN MENCOS FRANCO,"33 AVENIDA 24-31, COLONIA BETHANIA",GTM,Guatemala,Guatemala,,-90.53629974,14.64657173
GTM-000246,00-07-9185-42,EODP ANEXA A EOU PARA NIÑAS NO.50 INDOAMERICANA,"AVENIDA MOCTEZUMA 31-09, COLONIA BETHANIA",GTM,Guatemala,Guatemala,,-90.5341744,14.65066729
GTM-000247,00-08-0666-43,EOUV NO.48 PEDRO PABLO VALDES,40 CALLE B 11-65,GTM,Guatemala,Guatemala,,-90.52987105,14.60877186
GTM-000248,00-08-0667-43,EOUV NO.11 JOSE CLEMENTE CHAVARRIA,40 CALLE B 11-65 ZONA 8,GTM,Guatemala,Guatemala,,-90.52987105,14.60877186
GTM-000249,00-08-0668-43,EOUN NO. 44 JUAN DE FRANCISCO MARTIN,11 AVENIDA. 40-63,GTM,Guatemala,Guatemala,,-90.53010593,14.60921542
GTM-000250,00-08-0669-43,EOUN NO.26 JOSE MARIA FUENTES,11 AVENIDA 40-63,GTM,Guatemala,Guatemala,,-90.53010593,14.60921542
GTM-000251,00-08-0670-43,EOUN NO.14 SANTOS TORUÑO,2A AVE. 38-91,GTM,Guatemala,Guatemala,,-90.5316544,14.61490858
GTM-000252,00-08-0675-44,EOPA NO.11 EFRAIN AGUILAR FUENTES,2A AVE 38-91,GTM,Guatemala,Guatemala,,-90.5316544,14.61490858
GTM-000253,00-08-2825-42,EODP ANEXA A EOUN NO.44 JUAN FRANCISCO MARTIN,11 AVENIDA 40-63,GTM,Guatemala,Guatemala,,-90.53010593,14.60921542
GTM-000254,00-08-8366-42,EODP ANEXA A EOUM NO.19 VICENTE RIVAS,28 CALLE 7-32,GTM,Guatemala,Guatemala,,-90.52261593,14.62208701
GTM-000255,00-08-8367-43,EOUM NO.19 VICENTE RIVAS,28 CALLE 7-32,GTM,Guatemala,Guatemala,,-90.52261593,14.62208701
GTM-000256,00-10-0696-42,EODP NO.25 ALBERTO VELASQUEZ,17 CALLE 9-09,GTM,Guatemala,Guatemala,,-90.50933699,14.59292811
GTM-000257,00-10-0697-42,EODP NO.18 TULA ORTEGA,14 AVENIDA 18-19 ZONA 10 CIUDAD DE GUATEMALA,GTM,Guatemala,Guatemala,,-90.49728399,14.5849577
GTM-000258,00-11-0778-42,EODP NO.34 ENRIQUETA FIGUEROA,20 AVENIDA 9-70,GTM,Guatemala,Guatemala,,-90.55456724,14.61711979
GTM-000259,00-11-0779-42,EODP NO.5 REPUBLICA DE HAITI,21 CALLE 14-62 GRANAI Y TOWSON III,GTM,Guatemala,Guatemala,,-90.55736059,14.60658064
GTM-000260,00-11-0783-42,EODP NO.40,"CALZADA ROOSEVELT, DIAGONAL 12 8-01",GTM,Guatemala,Guatemala,,-90.54202265,14.61679979
GTM-000261,00-11-0811-43,EOUM JOSE FRANCISCO DE CORDOVA,20 AVE. A 8-98 COLONIA EL MIRADOR,GTM,Guatemala,Guatemala,,-90.55456724,14.61711979
GTM-000262,00-11-0812-43,EOUV NO.28 REPUBLICA DE EL SALVADOR,"13 CALLE 11-00, COLONIA ROOSEVELT",GTM,Guatemala,Guatemala,,-90.54898718,14.60986476
GTM-000263,00-11-0813-43,EOUM NO.28 MATIAS DE CORDOVA,9 AV. 3-01,GTM,Guatemala,Guatemala,,-90.54247259,14.61699601
GTM-000264,00-11-0814-43,EOUM 15 DE SEPTIEMBRE,"9A. AVENIDA 3-01, CAMPOS DEL ROOSEVELTH",GTM,Guatemala,Guatemala,,-90.54247259,14.61699601
GTM-000265,00-11-0815-43,EOUM CLAUDIO URRUTIA,20 AVE. A 8-98 COLONIA EL MIRADOR I,GTM,Guatemala,Guatemala,,-90.55456724,14.61711979
GTM-000266,00-11-0816-43,EOUN REPUBLICA DE COLOMBIA,"13 CALLE 11-00, COLONIA ROOSEVELT",GTM,Guatemala,Guatemala,,-90.54898718,14.60986476
GTM-000267,00-11-0840-45,INEB JUAN DIEGUEZ OLAVERRI,8A AVE. 25-40,GTM,Guatemala,Guatemala,,-90.55568012,14.60025314
GTM-000268,00-11-0841-45,INEB NOCTURNO POPOL VUH,13 CALLE 11-00 COLONIA ROOSEVELT,GTM,Guatemala,Guatemala,,-90.54898718,14.60986476
GTM-000269,00-11-2260-43,EOUV REPUBLICA DE CHILE,"8A. AVE. 25-66, COLONIA GRANAI II",GTM,Guatemala,Guatemala,,-90.55585974,14.59985458
GTM-000270,00-11-2261-43,EOUN NO.1 JOSE FELIPE FLORES,"21 CALLE 7-09, COLONIA MARISCAL",GTM,Guatemala,Guatemala,,-90.5509393,14.60196667
GTM-000271,00-11-2262-43,EOUN NO.54 EUFEMIA CORDOVA,8A. AVE. 25-40,GTM,Guatemala,Guatemala,,-90.55568012,14.60025314
GTM-000272,00-11-2275-43,EOUV NO.38 JOSE BATRES MONTUFAR,21 CALLE 7-09 COLONIA MARISCAL,GTM,Guatemala,Guatemala,,-90.5509393,14.60196667
GTM-000273,00-11-7364-45,INSTITUTO NACIONAL DE EDUCACION BASICA MIXTO TEZULUTLAN,"8A. AVENIDA 31-02, COLONIA LAS CHARCAS",GTM,Guatemala,Guatemala,,-90.56027012,14.59680886
GTM-000274,00-11-7750-45,INEB TECUN UMAN,8A. AVENIDA 31-02 COL. LAS CHARCAS INAJU,GTM,Guatemala,Guatemala,,-90.56027012,14.59680886
GTM-000275,00-11-8369-43,EOUM NO.138 CONFEDERACION SUIZA,5A. AVENIDA 52-23 COLONIA CASTAÑAS,GTM,Guatemala,Villa Nueva,,-90.57623874,14.57171561
GTM-000276,00-11-8376-43,EOUM NO.99 CONFEDERACION SUIZA,"5A. CALLE 4-96, COLONIA CASTAÑAS,",GTM,Guatemala,Villa Nueva,,-90.57623874,14.57171561
GTM-000277,00-11-8381-45,INSTITUTO INDUSTRIAL CENTRAL GRAL. LAZARO CHACON GONZALEZ,"8A. AVENIDA 31-02, COLONIA LAS CHARCAS, INAJU",GTM,Guatemala,Guatemala,,-90.56027012,14.59680886
GTM-000278,00-11-9376-42,EODP ANEXA A EOUN NO. 1 JOSE FELIPE FLORES,21 CALLE 7-09 COLONIA MARISCAL,GTM,Guatemala,Guatemala,,-90.5509393,14.60196667
GTM-000279,00-12-0023-42,EODP,"6 CALLE 3-48, CIUDAD REAL",GTM,Guatemala,Villa Nueva,,-90.55910162,14.55313536
GTM-000280,00-12-0863-42,EODP NO.45 FUERZA AEREA GUATEMALTECA,29 AVE. 18-18 COLONIA MILLER ROCK,GTM,Guatemala,Guatemala,,-90.53793077,14.59638123
GTM-000281,00-12-0880-43,EOUV NO.74 ORDEN DE MALTA,29 AVENIDA 18-18,GTM,Guatemala,Guatemala,,-90.53793077,14.59638123
GTM-000282,00-12-0881-43,EOUM NO.75 FUERZA AEREA GUATEMALTECA,29 AVENIDA 18-18,GTM,Guatemala,Guatemala,,-90.53793077,14.59638123
GTM-000283,00-12-0882-43,EOUM NO.127 EUREKA,46 CALLE Y AVENIDA PETAPA,GTM,Guatemala,Guatemala,,-90.5452189,14.56747061
GTM-000284,00-12-0897-44,EOPA NO. 18 CARMEN YDIGORAS FUENTES,13 AVENIDA 24-00,GTM,Guatemala,Guatemala,,-90.54754296,14.59503492
GTM-000285,00-12-0900-45,"ESCUELA DE APLICACION JM,  DR. CARLOS MARTINEZ DURAN ",AVENIDA PETAPA Y 32 CALLE,GTM,Guatemala,Guatemala,,-90.5459513,14.58632351
GTM-000286,00-12-0906-46,INSTITUTO TECNICO DIVERSIFICADO DE BACHILLERATO EN CONSTRUCCION,AVE. PETAPA Y 32 CALLE,GTM,Guatemala,Guatemala,,-90.5459513,14.58632351
GTM-000287,00-12-2277-43,EOUM NO.36 JACOBO DE VILLAURRUTIA,"11 AVE. 12-08, COLONIA LA REFORMITA",GTM,Guatemala,Guatemala,,-90.54055071,14.60384504
GTM-000288,00-12-2279-43,EOUM NO.64 PUERTO RICO,13 AVE. 24-00 COLONIA LA REFORMITA,GTM,Guatemala,Guatemala,,-90.54754296,14.59503492
GTM-000289,00-12-2281-43,EOUN NO.66 SUSANA ILLESCAS DE PALOMO,11 AVE. 12-08,GTM,Guatemala,Guatemala,,-90.54055071,14.60384504
GTM-000290,00-12-2283-43,EOUM NO.67 LIC. RICARDO CASTAÑEDA PAGANINI,13A. AVENIDA Y 24 CALLE 0-00,GTM,Guatemala,Guatemala,,-90.54754296,14.59503492
GTM-000291,00-12-2546-42,EODP ANEXA A EOUN NO.36 JACOBO DE VILLAURRUTIA,"11 AVE. 12-08, COLONIA LA REFORMITA",GTM,Guatemala,Guatemala,,-90.54055071,14.60384504
GTM-000292,00-12-2547-42,EODP ANEXA A EOUM NO.64 PUERTO RICO,"13 AVENIDA 24-00, COLONIA LA REFORMITA",GTM,Guatemala,Guatemala,,-90.54754296,14.59503492
GTM-000293,00-12-3070-42,EODP ANEXA A EOUV NO.74 ORDEN DE MALTA,29 AVENIDA 18-18,GTM,Guatemala,Guatemala,,-90.53793077,14.59638123
GTM-000294,00-12-4672-42,EODP NO.56,"4A. AVENIDA A 4-36, COLONIA GUAJITOS",GTM,Guatemala,Guatemala,,-90.53900859,14.5549197
GTM-000295,00-12-6962-45,INSTITUTO NACIONAL DE EDUCACION BASICA Y BACHILLERATO EN CIENCIAS Y LETRAS POR MADUREZ LICDA. MATILDE ROUGE,BOULEVARD LIBERACION 13-19,GTM,Guatemala,Guatemala,,-90.5459513,14.58632351
GTM-000296,00-12-7345-42,EODP ANEXA A EOUM NO.66 SUSANA ILLESCAS DE PALOMO,11 AVENIDA 12-08,GTM,Guatemala,Guatemala,,-90.54055071,14.60384504
GTM-000297,00-12-7409-42,EODP ANEXA A EOUM NUEVO AMANCER,ASENTAMIENTO NUEVO AMANECER SECTOR 3 AVENIDA PETAPA FINAL,GTM,Guatemala,Guatemala,,-90.55508827,14.54665583
GTM-000298,00-12-7410-42,EODP ANEXA A EOUM LOMA BLANCA,18 CALLE 08-81 COLONIA LOMA BLANCA ZONA 21,GTM,Guatemala,Guatemala,,-90.54366893,14.54242439
GTM-000299,00-12-7414-42,EODP NO. 62,3AV. 54-33 COLONIA CASTAÑAS,GTM,Guatemala,Villa Nueva,,-90.57625568,14.56959208
GTM-000300,00-12-7415-42,EODP ANEXA A EOUM NO.77 RIGOBERTO BRAN AZMITIA,"6A. CALLE 3-48, CIUDAD REAL II",GTM,Guatemala,Villa Nueva,,-90.55910162,14.55313536
GTM-000301,00-12-7416-42,EODP ANEXA A EOUM NO.113 QUIRINA TASSI DE AGOSTINI,"5A. AVENIDA Y 1A. CALLE, CIUDAD REAL I",GTM,Guatemala,Villa Nueva,,-90.55686665,14.55625554
GTM-000302,00-12-7417-42,EODP ANEXA A EOUM NO.141 QUIRINA TASSI DE AGOSTINI,"1A. CALLE, CIUDAD REAL I",GTM,Guatemala,Villa Nueva,,-90.55686665,14.55625554
GTM-000303,00-12-7421-43,EOUM NUEVO AMANECER,ASENTAMIENTO NUEVO AMANECER SECTOR 3 AVENIDA PETAPA FINAL,GTM,Guatemala,Guatemala,,-90.55508827,14.54665583
GTM-000304,00-12-7422-43,EOUM,18 CALLE 08-81 COLONIA LOMA BLANCA ZONA 21,GTM,Guatemala,Guatemala,,-90.54366893,14.54242439
GTM-000305,00-12-7447-43,EOUM NO.141 QUIRINA TASSI DE AGOSTINI,"1A. CALLE, CIUDAD REAL I",GTM,Guatemala,Villa Nueva,,-90.55686665,14.55625554
GTM-000306,00-12-7448-43,EOUM NO.50 LEONIDAS MENCOS AVILA,6A CALLE 3-48 CIUDAD REAL II,GTM,Guatemala,Villa Nueva,,-90.55910162,14.55313536
GTM-000307,00-12-7449-43,EOUM NO.113 QUIRINA TASSI DE AGOSTINI,5A. AVENIDA Y 1A. CALLE CIUDAD REAL I,GTM,Guatemala,Villa Nueva,,-90.55686665,14.55625554
GTM-000308,00-12-7453-43,EOUM FELIX HERNANDEZ ANDRINO,"3A. CALLE 8-61, COLONIA GUAJITOS",GTM,Guatemala,Guatemala,,-90.54125343,14.55768548
GTM-000309,00-12-8785-42,EODP ANEXA A EOUM NO.456 CANADA,3A. CALLE 2-61 COLONIA GUAJITOS,GTM,Guatemala,Guatemala,,-90.54125343,14.55768548
GTM-000310,00-12-8792-42,EODP ANEXA A EOUM NO.127 EUREKA,46 CALLE Y AVENIDA PETAPA,GTM,Guatemala,Guatemala,,-90.5452189,14.56747061
GTM-000311,00-12-9039-43,EOUM EUREKA,46 CALLE Y AVENIDA PETAPA,GTM,Guatemala,Guatemala,,-90.5452189,14.56747061
GTM-000312,00-12-9156-42,EODP,CALLE PRINCIPAL LOS OLIVOS 0-14 LOMA BLANCA,GTM,Guatemala,Guatemala,,-90.54357305,14.54392776
GTM-000313,00-13-0920-43,EOUM NO.98  GENERAL JOSE MARIA REYNA BARRIOS ,COLONIA REYNA BARRIOS,GTM,Guatemala,Guatemala,,-90.53425849,14.58316808
GTM-000314,00-13-0921-43,EOUM NO. 93 MELIDA MONTENEGRO VIUDA DE MENDEZ,"30 CALLE A Y 13 AVENIDA, COLONIA SANTA FE",GTM,Guatemala,Guatemala,,-90.53166352,14.56338083
GTM-000315,00-13-0923-43,EOUM REPUBLICA DE PANAMA,AV. HINCAPIE 27-00,GTM,Guatemala,Guatemala,,-90.52875055,14.56759683
GTM-000316,00-13-0938-46,INSTITUTO TECNICO VOCACIONAL DR. IMRICH FISCHMANN,7A AVE. 5-80,GTM,Guatemala,Guatemala,,-90.53079659,14.59768226
GTM-000317,00-13-0940-45,INSTITUTO ADOLFO V. HALL CENTRAL,7A AVE. FINCA LA AURORA,GTM,Guatemala,Guatemala,,-90.53160118,14.59707648
GTM-000318,00-13-0941-45,INEB ADSCRITO A ESCUELA NORMAL CENTRAL PARA VARONES,5A CALLE 8-06 ZONA 13,GTM,Guatemala,Guatemala,,-90.52834396,14.59799958
GTM-000319,00-13-0941-46,ESCUELA NORMAL CENTRAL PARA VARONES,5A CALLE 8-06,GTM,Guatemala,Guatemala,,-90.52834396,14.59799958
GTM-000320,00-13-2287-42,EODP NO.525,13 AVENIDA B 26-44 COLONIA LA LIBERTAD,GTM,Guatemala,Guatemala,,-90.52979671,14.56839195
GTM-000321,00-13-2296-43,EOUM NO.109 LA LIBERTAD,13 AVE. B 26-45 COLONIA LA LIBERTAD,GTM,Guatemala,Guatemala,,-90.52940093,14.56816361
GTM-000322,00-13-2564-42,EODP ANEXA A EOUM NO.98 GENERAL JOSE MARIA REYNA BARRIOS,COLONIA REYNA BARRIOS,GTM,Guatemala,Guatemala,,-90.53425849,14.58316808
GTM-000323,00-13-2568-43,EOUM NO.142 REPUBLICA DE PANAMA,AV HINCAPIE 27-00,GTM,Guatemala,Guatemala,,-90.52875055,14.56759683
GTM-000324,00-13-8872-45,INST BASICO INDUSTRIAL Y TECNICO EN UNA ESPECIALIDAD ADSCRITO AL INST TEC. VOC. DR. IMRICH FISCHMANN,7A. AVENIDA 5-80,GTM,Guatemala,Guatemala,,-90.53079659,14.59768226
GTM-000325,00-14-0949-42,EODP ANEXA A EOUM NO.145 MIGUEL VASQUEZ,4A. CALLE 25-53,GTM,Guatemala,Guatemala,,-90.49882584,14.58067423
GTM-000326,00-14-0952-43,EOUM NO.146 LIC. EDUARDO CACERES LEHNHOFF,17 AVENIDA 6-95,GTM,Guatemala,Guatemala,,-90.50615827,14.58193611
GTM-000327,00-14-0953-43,EOUM NO.103 MIGUEL VASQUEZ,4A CALLE 25-53,GTM,Guatemala,Guatemala,,-90.49882584,14.58067423
GTM-000328,00-14-0954-43,EOUM NO.145 MIGUEL VASQUEZ,4A CALLE 25-53,GTM,Guatemala,Guatemala,,-90.49882584,14.58067423
GTM-000329,00-14-6940-42,EODP ANEXA A EOUM NO.146 LIC. EDUARDO CACERES LENHOFF,17 AVENIDA 6-95,GTM,Guatemala,Guatemala,,-90.50615827,14.58193611
GTM-000330,00-15-0960-42,EODP NO.32 LUZ FIGUEROA GUILLEN VDA. DE CASTEJON,"3A. CALLE 16-53, COLONIA EL MAESTRO",GTM,Guatemala,Guatemala,,-90.49737996,14.60108439
GTM-000331,00-15-0972-43,EOUM NO.100 REPUBLICA FEDERAL DE ALEMANIA,10A AVE. A 2-70 COLONIA TECUN UMAN,GTM,Guatemala,Guatemala,,-90.50066134,14.61034342
GTM-000332,00-16-4020-42,EODP ANEXA A EOUM NO.106 MARIO MENDEZ MONTENEGRO,9A. CALLE 5-06 COLONIA SANTA ROSITA GUATEMALA,GTM,Guatemala,Guatemala,,-90.47818262,14.62008583
GTM-000333,00-16-4031-42,EODP ANEXA A EORM NO.608 HILDA ALICIA GONZALEZ APARICIO DE FALLA,"3A. CALLE 9-81, COLONIA ACATAN",GTM,Guatemala,Guatemala,,-90.47409074,14.62321923
GTM-000334,00-16-4033-42,EODP ANEXA A EORM NO.616 AMERICANA,"1A. AVENIDA 4-28, COLONIA CONCEPCION LAS LOMAS",GTM,Guatemala,Guatemala,,-90.48436874,14.59818298
GTM-000335,00-16-7457-42,EODP ANEXA A EORM NO. 604 ROSA PARDO DE LANUZA,"0 AVENIDA 01-98, ALDEA LAS VACAS",GTM,Guatemala,Guatemala,,-90.48545468,14.63087508
GTM-000336,00-16-7458-42,EODP ANEXA A EORM ALDEA SAN GASPAR,9A. AVENIDA 25-30 COLONIA SAN GASPAR,GTM,Guatemala,Guatemala,,-90.47161071,14.60347458
GTM-000337,00-16-7459-43,EORM NO.616 AMERICANA,"1A. AVENIDA 4-28, COLONIA CONCEPCION LAS LOMAS",GTM,Guatemala,Guatemala,,-90.48436874,14.59818298
GTM-000338,00-16-7460-43,EORM NO.608 HILDA ALICIA GONZALEZ APARICIO DE FALLA,"3A. CALLE 9-81, COLONIA ACATAN",GTM,Guatemala,Guatemala,,-90.47409074,14.62321923
GTM-000339,00-16-7461-43,EORM NO.604 ROSA PARDO DE LANUZA,"0 AVENIDA 01-98, ALDEA LAS VACAS",GTM,Guatemala,Guatemala,,-90.48545468,14.63087508
GTM-000340,00-16-7463-43,EOUM NO.131 MARIO MENDEZ MONTENEGRO,9A. CALLE 5-06 COLONIA SANTA ROSITA,GTM,Guatemala,Guatemala,,-90.47818262,14.62008583
GTM-000341,00-16-7464-43,EOUM NO.106 MARIO MENDEZ MONTENEGRO,9A. CALLE 5-06 COLONIA SANTA ROSITA GUATEMALA,GTM,Guatemala,Guatemala,,-90.47818262,14.62008583
GTM-000342,00-16-7558-42,EODP ANEXA A EORM NO. 616 AMERICANA,1A. AVENIDA 4-28 COLONIA CONCEPCION LAS LOMAS,GTM,Guatemala,Guatemala,,-90.48436874,14.59818298
GTM-000343,00-16-8193-42,EODP ANEXA A EOUM NO.131 MARIO MENDEZ MONTENEGRO,9A. CALLE 5-06 COLONIA SANTA ROSITA,GTM,Guatemala,Guatemala,,-90.47818262,14.62008583
GTM-000344,00-16-8495-43,EORM PADRE JOSE NOE LEMUS MUÑOZ,"9A. AVENIDA 25-30, COLONIA SAN GASPAR",GTM,Guatemala,Guatemala,,-90.47161071,14.60347458
GTM-000345,00-16-8978-45,INSTITUTO DE EDUCACION BASICA POR COOPERATIVA,"4A. AVENIDA Y 5A. CALLE, SANTA ROSITA ALDEA SANTA ROSITA",GTM,Guatemala,Guatemala,,-90.47885746,14.6219337
GTM-000346,00-16-9577-42,EODP ANEXA A EORM PADRE JOSE NOE LEMUS MUÑOZ,9A. AVENIDA 25-30 COLONIA SAN GASPAR,GTM,Guatemala,Guatemala,,-90.47161071,14.60347458
GTM-000347,00-17-1000-42,EODP ANEXA A EOUM NO.85,"9A CALLE Y 13 AVENIDA FINAL, COLONIA LOMAS DEL NORTE",GTM,Guatemala,Guatemala,,-90.45987152,14.64566804
GTM-000348,00-17-1002-45,INSTITUTO NACIONAL MIXTO DE EDUCACION BASICA ATLANTIDA,3A. AVE. 10-79 RESIDENCIALES DEL NORTE,GTM,Guatemala,Guatemala,,-90.46901952,14.65217151
GTM-000349,00-17-1171-43,EOUM NO.85,9A CALLE Y 13 AVE. COLONIA LOMAS DEL NORTE,GTM,Guatemala,Guatemala,,-90.45987152,14.64566804
GTM-000350,00-17-2581-45,INEB,"3A AV 10-79 RESIDENCIALES DEL NORTE,",GTM,Guatemala,Guatemala,,-90.46901952,14.65217151
GTM-000351,00-17-3145-43,EORM LOS ANGELES,"KILOMETRO 10.5, RUTA AL ATLANTICO, COLONIA LOS ANGELES",GTM,Guatemala,Guatemala,,-90.41173434,14.64233367
GTM-000352,00-17-7466-42,EODP ANEXA A EORM NO.619,"CANTON JAGUEY, ALDEA CANALITOS",GTM,Guatemala,Guatemala,,-90.44264312,14.63100729
GTM-000353,00-17-7468-42,EODP ANEXA NO.471 LICDA. LUZ SANCHEZ DE ALVAREZ,KM.14.5 RUTA AL ATLANTICO COLONIA HNO. PEDRO,GTM,Guatemala,Guatemala,,-90.39790002,14.69001664
GTM-000354,00-17-7472-42,EODP ANEXA A EORM NO.606 EL ACEITUNO,ALDEA SABANA ARRIBA,GTM,Guatemala,Guatemala,,-90.48443921,14.63965079
GTM-000355,00-17-7473-42,EODP ANEXA A EOUM SAN AGUSTIN,"KM. 10.8 RUTA AL ATLANTICO, COLONIA SAN AGUSTIN ALDEA EL BEBEDERO",GTM,Guatemala,Guatemala,,-90.42796037,14.65091739
GTM-000356,00-17-7474-42,EODP ANEXA A EORM NO.614,KM. 12.5 RUTA AL ATLANTICO CASERIO EL BUEN PASTOR,GTM,Guatemala,Guatemala,,-90.41830543,14.6555402
GTM-000357,00-17-7479-43,EOUM NO. 619,"CANTON JAGUEY, ALDEA CANALITOS",GTM,Guatemala,Guatemala,,-90.44264312,14.63100729
GTM-000358,00-17-7480-43,EORM NO. 607 SONIA RINCON,KM.10 RUTA AL ATLANTICO ALDEA EL BEBEDERO,GTM,Guatemala,Guatemala,,-90.43423296,14.64780739
GTM-000359,00-17-7481-43,EOUM SAN AGUSTIN,KILOMETRO 10.80 RUTA AL ATLANTICO COLONIA SAN AGUSTIN,GTM,Guatemala,Guatemala,,-90.42796037,14.65091739
GTM-000360,00-17-7482-43,EORM NO. 614,KM. 12.5 RUTA AL ATLANTICO CASERIO EL BUEN PASTOR,GTM,Guatemala,Guatemala,,-90.41830543,14.6555402
GTM-000361,00-17-7483-43,EOUM NO.471 LUZ ISABEL SANCHEZ,"KM. 14.5 RUTA AL ATLANTICO, COLONIA HERMANO PEDRO,",GTM,Guatemala,Guatemala,,-90.39790002,14.69001664
GTM-000362,00-17-7484-43,EORM SANTA DELFINA,KM 16.5 RUTA AL ATLANTICO,GTM,Guatemala,Guatemala,,-90.48770002,14.64944998
GTM-000363,00-17-7486-43,EORM NO. 606 EL ACEITUNO,ALDEA SABANA ARRIBA,GTM,Guatemala,Guatemala,,-90.48443921,14.63965079
GTM-000364,00-17-7490-43,EORM NO. 613 MARIO MENDEZ MONTENEGRO,ALDEA SANTA LUCIA LOS OCOTES,GTM,Guatemala,Guatemala,,-90.41210968,14.61654976
GTM-000365,00-17-7491-43,EORM NO. 609,ALDEA LA CEBADILLA,GTM,Guatemala,Guatemala,,-90.39080271,14.65704876
GTM-000366,00-17-7792-42,EODP JM SANTA DELFINA,"COLONIA SANTA DELFINA, ZONA 25 KM.16.5 RUTA AL ATLANTICO, LOTE 3 A SECCION C",GTM,Guatemala,Guatemala,,-90.45402455,14.67146623
GTM-000367,00-17-7908-43,EOUM,"9A. CALLE Y 13 AVENIDA FINAL , COLONIA LOMAS DEL NORTE",GTM,Guatemala,Guatemala,,-90.45987152,14.64566804
GTM-000368,00-17-8382-42,EODP ANEXA A EORM NO.2195,4A. AVENIDA A NO.28 A RESIDENCIALES MONTESOLAR,GTM,Guatemala,Guatemala,,-90.46398546,14.6238447
GTM-000369,00-17-8383-43,EORM # 2195 MONTESANO,4AV.A NO.28 A RESIDENCIALES MONTESOLAR,GTM,Guatemala,Guatemala,,-90.46398546,14.6238447
GTM-000370,00-17-8469-43,EOUM,"BLOQUE O, LOTE 6 ASENTAMIENTO SALUD PUBLICA",GTM,Guatemala,Guatemala,,-90.46927099,14.64759398
GTM-000371,00-17-8476-42,EODP ANEXA A EOUM NO.85,"9A. CALLE Y 13 AVENIDA FINAL, COLONIA LOMAS DEL NORTE",GTM,Guatemala,Guatemala,,-90.45987152,14.64566804
GTM-000372,00-17-8603-42,ESCUELA OFICIAL URBANA MIXTA PARA PARVULOS SALUD PUBLICA,BLOQUE O LOTES 6 ASENTAMIENTO SALUD PUBLICA,GTM,Guatemala,Guatemala,,-90.46927099,14.64759398
GTM-000373,00-17-8658-42,EODP ANEXA A EOUM,COLONIA LAS CONCHAS,GTM,Guatemala,Guatemala,,-90.50064537,14.65475286
GTM-000374,00-17-8659-43,EOUM,COLONIA LAS CONCHAS,GTM,Guatemala,Guatemala,,-90.50064537,14.65475286
GTM-000375,00-17-9436-42,EODP ANEXA A EORM 471,KM.14 RUTA AL ATLANTICO COL. HERMANO PEDRO,GTM,Guatemala,Guatemala,,-90.39790002,14.69001664
GTM-000376,00-17-9437-42,EODP ANEXA A EORM LOS ANGELES,"KM 10.5 RUTA AL ATLANTICO, LOTE 1 MANZANA T COL. LOS ANGELES",GTM,Guatemala,Guatemala,,-90.41173434,14.64233367
GTM-000377,00-18-1003-42,EODP NO.75,"25 AVENIDA FINAL, COLONIA ALAMEDA III",GTM,Guatemala,Guatemala,,-90.4526869,14.65634736
GTM-000378,00-18-1004-42,ESCUELA OFICIAL DE PARVULOS NO. 53 JUANA DE ARCO,LOTE 10 MANZANA 29 COLONIA JUANA DE ARCO,GTM,Guatemala,Guatemala,,-90.45402455,14.67146623
GTM-000379,00-18-1005-42,EODP NO.48,"5A.AVENIDA 13-41, COLONIA ATLANTIDA",GTM,Guatemala,Guatemala,,-90.48061724,14.65910133
GTM-000380,00-18-1029-43,EOUM NO.155,14 AVENIDA. Y 5A CALLE COLONIA LAVARREDA,GTM,Guatemala,Guatemala,,-90.47553899,14.65276083
GTM-000381,00-18-1030-43,EOUM NO. 96 FELISA SOTO MONTENEGRO,14 CALLE 4-68 COLONIA ATLANTIDA,GTM,Guatemala,Guatemala,,-90.48061724,14.65910133
GTM-000382,00-18-1031-43,EOUM NO.439 ALAMEDA III,25AV. Y 12 CALLE COLONIA PARAISO I,GTM,Guatemala,Guatemala,,-90.44526655,14.66111523
GTM-000383,00-18-1032-43,EOUM NO.118 FELISA SOTO MONTENEGRO,14 CALLE 4-68 COLONIA ATLANTIDA,GTM,Guatemala,Guatemala,,-90.48061724,14.65910133
GTM-000384,00-18-1055-45,INEB,"LOTE 1, MANZANA 9 A COLONIA MAYA",GTM,Guatemala,Guatemala,,-90.4580388,14.67099533
GTM-000385,00-18-1056-45,INEB,COLONIA MAYA,GTM,Guatemala,Guatemala,,-90.4580388,14.67099533
GTM-000386,00-18-1057-45,INEB SAN RAFAEL LA LAGUNA,9A CALLE 26-60 COLONIA EL PARAISO II,GTM,Guatemala,Guatemala,,-90.44260196,14.65327867
GTM-000387,00-18-1132-42,EODP ANEXA A EOUM NO.116,"DIAGONAL 27, COLONIA SAN RAFAEL LA LAGUNA I",GTM,Guatemala,Guatemala,,-90.45041046,14.65375886
GTM-000388,00-18-1134-42,EODP ANEXA A EOUM NO. 76 FRAY IGNACIO BARNOYA,"12 AVENIDA 9-00, COLONIA MAYA",GTM,Guatemala,Guatemala,,-90.45780674,14.67091586
GTM-000389,00-18-1135-42,EODP ANEXA A EOUM NO.454 SANTA ELENA III,"25 AVENIDA 17-00, COLONIA SANTA ELENA III",GTM,Guatemala,Guatemala,,-90.4733254,14.66399551
GTM-000390,00-18-1136-42,EODP ANEXA A EOUM NO.436,"25 AVENIDA 12-10, COLONIA PARAISO I",GTM,Guatemala,Guatemala,,-90.44568624,14.66063086
GTM-000391,00-18-1137-42,EODP ANEXA A EOUM NO.440 ALAMEDA NORTE,"17 CALLE 23-91, COLONIA ALAMEDA NORTE",GTM,Guatemala,Guatemala,,-90.44541418,14.66591236
GTM-000392,00-18-1138-42,EODP ANEXA A EOUM NO.155,14 AVENIDA Y 5A. CALLE COLONIA LAVARREDA,GTM,Guatemala,Guatemala,,-90.47553899,14.65276083
GTM-000393,00-18-1167-43,EOUM NO.455,"9A CALLE 26-60 COLONIA PARAISO II,",GTM,Guatemala,Guatemala,,-90.44260196,14.65327867
GTM-000394,00-18-1168-43,EOUM NO.621,16 AVENIDA 4-84 COLONIA RENACIMIENTO MUNICIPAL,GTM,Guatemala,Guatemala,,-90.47229159,14.65153354
GTM-000395,00-18-1169-43,EOUM NO.116,DIAGONAL 27 COLONIA SAN RAFAEL LA LAGUNA,GTM,Guatemala,Guatemala,,-90.45041046,14.65375886
GTM-000396,00-18-1170-43,EOUM NO.437,26 AVE. 9-30 COLONIA PARAISO II,GTM,Guatemala,Guatemala,,-90.44260515,14.65436186
GTM-000397,00-18-1172-43,ESCUELA OFICIAL URBANA MIXTA NO. 90,4A. AVENIDA 13-00 SAN RAFAEL LA LAGUNA III LAS COLINAS,GTM,Guatemala,Guatemala,,-90.45094631,14.65502513
GTM-000398,00-18-1173-43,EOUM NO.91 GRAL. FRANCISCO DE PAULA SANTANDER Y ANTONIA SANTOS,"BARRIO COLOMBIA, COLONIA SAN RAFAEL LA LAGUNA",GTM,Guatemala,Guatemala,,-90.44952474,14.66420264
GTM-000399,00-18-1175-43,EOUM SAN RAFAEL LA LAGUNA II,13 AVE. 13-00 COLONIA SAN RAFAEL LA LAGUNA II,GTM,Guatemala,Guatemala,,-90.44754937,14.65717358
GTM-000400,00-18-1177-43,EOUM NO.76 FRAY IGNACIO BARNOYA,12 AVENIDA 9-00 COLONIA MAYA,GTM,Guatemala,Guatemala,,-90.45780674,14.67091586
GTM-000401,00-18-1178-43,EOUM NO.454,25 AVENIDA 17-00 COLONIA SANTA ELENA III,GTM,Guatemala,Guatemala,,-90.4733254,14.66399551
GTM-000402,00-18-1180-43,EOUM NO.611,"38 CALLE A ENTRE 22 AVENIDA Y 23 AVENIDA LOTE 134 ,MANZANA 7 COLONIA EL ROSARIO",GTM,Guatemala,Guatemala,,-90.4632894,14.68189254
GTM-000403,00-18-1181-43,EOUM NO.110 JUANA DE ARCO,"19A. AVENIDA 12-30, COLONIA JUANA DE ARCO",GTM,Guatemala,Guatemala,,-90.46943502,14.65758461
GTM-000404,00-18-1182-43,EOUM NO. 154 LA ALAMEDA,25 AVENIDA 12-04 COLONIA ALAMEDA IV,GTM,Guatemala,Guatemala,,-90.4454213,14.66016254
GTM-000405,00-18-1183-43,EOUM NO. 440 ALAMEDA NORTE,17 CALLE 23-91 COLONIA ALAMEDA NORTE,GTM,Guatemala,Guatemala,,-90.44541418,14.66591236
GTM-000406,00-18-1185-43,EOUM NO.143 SAN RAFAEL LA LAGUNA,DIAGONAL 27 COLONIA SAN RAFAEL LA LAGUNA I,GTM,Guatemala,Guatemala,,-90.45041046,14.65375886
GTM-000407,00-18-1186-43,EOUM NO. 76 FRAY IGNACIO BARNOYA,12 AV. 9-00 COLONIA MAYA,GTM,Guatemala,Guatemala,,-90.45780674,14.67091586
GTM-000408,00-18-1187-43,EOUM JOHN F. KENNEDY,3A AVENIDA LOTE 200 COLONIA KENNEDY,GTM,Guatemala,Guatemala,,-90.45737724,14.66283773
GTM-000409,00-18-1188-43,EOUM NO.104 PUERTO RICO,14 AVE. Y 5A CALLE COLONIA LAVARREDA,GTM,Guatemala,Guatemala,,-90.47553899,14.65276083
GTM-000410,00-18-1189-43,"EOUM SAN RAFAEL LA LAGUNA II,","13 AVE. 13-00 COLONIA SAN RAFAEL LA LAGUNA II,",GTM,Guatemala,Guatemala,,-90.44754937,14.65717358
GTM-000411,00-18-1190-43,EOUM NO.91 SAN RAFAEL LA LAGUNA IV,BARRIO COLOMBIA COLONIA SAN RAFAEL LA LAGUNA IV,GTM,Guatemala,Guatemala,,-90.44952474,14.66420264
GTM-000412,00-18-1191-43,EOUM NO.147 JUANA DE ARCO,LOTE 1 MANZANA 5 COLONIA JUANA DE ARCO,GTM,Guatemala,Guatemala,,-90.46943502,14.65758461
GTM-000413,00-18-1192-43,EOUM NO.436,25 AVENIDA 12-10 COLONIA PARAISO I,GTM,Guatemala,Guatemala,,-90.44568624,14.66063086
GTM-000414,00-18-1193-43,EOUM NO.438,26 AVENIDA 9-30 COLONIA PARAISO II,GTM,Guatemala,Guatemala,,-90.44260515,14.65436186
GTM-000415,00-18-1207-43,EOUM NO.622 LOS PINOS,"30 AVENIDA Y 17 CALLE, COLONIA LOS PINOS",GTM,Guatemala,Guatemala,,-90.45791418,14.65458029
GTM-000416,00-18-2391-42,EODP ANEXA A EOUM NO.617 JOHN F. KENNEDY,"3A. AVENIDA LOTE 200, COLONIA KENNEDY",GTM,Guatemala,Guatemala,,-90.45737724,14.66283773
GTM-000417,00-18-2401-43,EOUM NO.617 JOHN F. KENNEDY,3A AVE. LOTE 200 COLONIA KENNEDY,GTM,Guatemala,Guatemala,,-90.45737724,14.66283773
GTM-000418,00-18-2587-42,EODP ANEXA A EOUM NO.611,COLONIA EL ROSARIO,GTM,Guatemala,Guatemala,,-90.4632894,14.68189254
GTM-000419,00-18-2792-44,EOPA NO.54 BARRIO COLOMBIA,"MANZANA 5 LOTE 01, COLONIA JUANA DE ARCO",GTM,Guatemala,Guatemala,,-90.46943502,14.65758461
GTM-000420,00-18-2834-42,EODP ANEXA A EOUM OSCAR DE LEON PALACIOS,KM. 12.5 RUTA AL ATLANTICO,GTM,Guatemala,Guatemala,,-90.41296665,14.67760001
GTM-000421,00-18-2855-43,EOUM NO.65 DOMINGO JUARROS,COLONIA SAN RAFAEL LA LAGUNA III,GTM,Guatemala,Guatemala,,-90.45094631,14.65502513
GTM-000422,00-18-2859-43,EORM NO.603 OSCAR DE LEON PALACIOS,KILOMETRO 12.5 RUTA AL ATLANTICO ALDEA LO DE RODRIGUEZ,GTM,Guatemala,Guatemala,,-90.41296665,14.67760001
GTM-000423,00-18-3081-42,EODP ANEXA A LA ESCUELA OFICIAL URBANA MIXTA LAS ILUSIONES,"LOTE NO.49 SECCION D , COLONIA LAS ILUSIONES",GTM,Guatemala,Guatemala,,-90.42219999,14.66521667
GTM-000424,00-18-3081-43,EOUM LAS ILUSIONES,"LOTE #49, SECCION D COLONIA LAS ILUSIONES",GTM,Guatemala,Guatemala,,-90.42219999,14.66521667
GTM-000425,00-18-3162-43,EORM NO. 590 CEIBA,KM. 13.5 RUTA AL ATLANTICO,GTM,Guatemala,Guatemala,,-90.41674177,14.67368492
GTM-000426,00-18-6957-43,EOUM,13 CALLE D 21-20 ASENTAMIENTO 14 DE ENERO,GTM,Guatemala,Guatemala,,-90.46818796,14.66254895
GTM-000427,00-18-6972-42,EODP SAN RAFAEL III LAS COLINAS,13 CALLE B 03-80 SAN RAFAEL III,GTM,Guatemala,Guatemala,,-90.44705389,14.65561562
GTM-000428,00-18-6986-42,EODP ANEXA A EOUM NO.436,"25 AVENIDA 12-10, COLONIA PARAISO I",GTM,Guatemala,Guatemala,,-90.44568624,14.66063086
GTM-000429,00-18-7020-45,INSTITUTO NACIONAL EXPERIMENTAL DE EDUCACION BASICA CON ORIENTACION OCUPACIONAL PROFESOR HECTOR NERI CASTAÑEDA CALDERON,KM. 9 RUTA AL ATLANTICO,GTM,Guatemala,Guatemala,,-90.44524652,14.6490297
GTM-000430,00-18-7032-42,EODP ANEXA A EOUM SANTA BARBARA,"KM. 15.5 RUTA AL ATLANTICO, COLONIA SANTA BARBARA",GTM,Guatemala,Guatemala,,-90.40776677,14.69056623
GTM-000431,00-18-7051-45,INEB,17 CALLE 21 AV. B FINAL COL. ALAMEDA NORTE,GTM,Guatemala,Guatemala,,-90.44658471,14.66646123
GTM-000432,00-18-7122-42,EODP ANEXA A EOUM,COLONIA SAN RAFAEL LA LAGUNA III,GTM,Guatemala,Guatemala,,-90.45094631,14.65502513
GTM-000433,00-18-7123-42,EODP ANEXA A EOUM,"13 AVENIDA 13-00, COLONIA SAN RAFAEL LA LAGUNA II",GTM,Guatemala,Guatemala,,-90.44754937,14.65717358
GTM-000434,00-18-7130-43,EOUM,"13 CALLE, SECTOR 6, MANZANA 56, COLONIA EL LIMON,",GTM,Guatemala,Guatemala,,-90.46818796,14.66254895
GTM-000435,00-18-7273-42,EODP ANEXA A EOUM,COLONIA EL LIMON,GTM,Guatemala,Guatemala,,-90.46818796,14.66254895
GTM-000436,00-18-7371-42,EODP NO.110 JUANA DE ARCO,"19 AVENIDA 12-30, COLONIA JUANA DE ARCO",GTM,Guatemala,Guatemala,,-90.46943502,14.65758461
GTM-000437,00-18-7492-42,EODP ANEXA A EOUM NO.65 DOMINGO JUARROS,"COLONIA SAN RAFAEL III, LAS COLINAS",GTM,Guatemala,Guatemala,,-90.45094631,14.65502513
GTM-000438,00-18-7495-42,EODP ANEXA NO. 590 LA CEIBA,KM. 13.5 RUTA AL ATLANTICO,GTM,Guatemala,Guatemala,,-90.41674177,14.67368492
GTM-000439,00-18-7496-42,EODP ANEXA A EORM NO. 467 LA PASCUA,"CAMINO A LA FINCA LA PASCUA,",GTM,Guatemala,Guatemala,,-90.4358604,14.6585067
GTM-000440,00-18-7497-42,EODP ANEXA A EOUM NO.385,ALDEA LAS TAPIAS,GTM,Guatemala,Guatemala,,-90.45385155,14.67697689
GTM-000441,00-18-7498-42,EODP ANEXA A EOUM NO.111,CALLE REAL LAS TAPIAS,GTM,Guatemala,Guatemala,,-90.45385155,14.67697689
GTM-000442,00-18-7500-42,"EODP ANEXA A EOUM NO.315, JM, COMUNIDAD SAN PASCUAL III,",KM. 15 RUTA AL ATLANTICO COMUNIDAD SAN PASCUAL III,GTM,Guatemala,Guatemala,,-90.40893612,14.68409533
GTM-000443,00-18-7501-42,EODP -PAIN-,23 AV. 12-68 PARAISO I SALON COMUNAL,GTM,Guatemala,Guatemala,,-90.45402455,14.67146623
GTM-000444,00-18-7502-43,EORM NO.467,"COLONIA LA PASCUA, CAMINO A FINCA LA PASCUA",GTM,Guatemala,Guatemala,,-90.4358604,14.6585067
GTM-000445,00-18-7503-43,EOUM NO.385,ALDEA LAS TAPIAS,GTM,Guatemala,Guatemala,,-90.45385155,14.67697689
GTM-000446,00-18-7504-43,EOUM NO.111,CALLE REAL LAS TAPIAS,GTM,Guatemala,Guatemala,,-90.45385155,14.67697689
GTM-000447,00-18-7506-43,EOUM NO. 315 COMUNIDAD SAN PASCUAL III,KM.15 RUTA AL ATLANTICO,GTM,Guatemala,Guatemala,,-90.40893612,14.68409533
GTM-000448,00-18-7684-43,EORM NO.590,LO DE RODRIGUEZ,GTM,Guatemala,Guatemala,,-90.41674177,14.67368492
GTM-000449,00-18-7689-43,EOUM ALAMEDA III NO.439,"25 AVENIDA Y 12 CALLE, COLONIA PARAISO 1",GTM,Guatemala,Guatemala,,-90.44526655,14.66111523
GTM-000450,00-18-7694-42,EODP ANEXA A EOUM,13 CALLE SECTOR 6 MANZANA 56 COLONIA EL LIMON,GTM,Guatemala,Guatemala,,-90.46818796,14.66254895
GTM-000451,00-18-7695-42,EODP ANEXA A EOUM FRAY IGNACIO BARNOYA,"12 AVENIDA 9-00, COLONIA MAYA",GTM,Guatemala,Guatemala,,-90.45780674,14.67091586
GTM-000452,00-18-7696-42,EODP ANEXA A EOUM LA ALAMEDA III NO. 439,25 AVENIDA Y 12 CALLE COLONIA PARAISO I,GTM,Guatemala,Guatemala,,-90.44526655,14.66111523
GTM-000453,00-18-7697-42,EODP ANEXA A EOUM NO.154 LA ALAMEDA,"25 AVENIDA 12-01, COLONIA EL PARAISO I",GTM,Guatemala,Guatemala,,-90.4454213,14.66016254
GTM-000454,00-18-7699-42,EODP ANEXA A EOUM NO.438 PARAISO II,"26 AVENIDA 9-30, COLONIA EL PARAISO II",GTM,Guatemala,Guatemala,,-90.44260515,14.65436186
GTM-000455,00-18-7702-43,EOUM NO. 154 LA ALAMEDA,25AV. 12-01 COLONIA EL PARAISO I,GTM,Guatemala,Guatemala,,-90.4454213,14.66016254
GTM-000456,00-18-7751-43,EOUM NO.622 LOS PINOS,"31 AVENIDA Y 17 CALLE, COLONIA LOS PINOS",GTM,Guatemala,Guatemala,,-90.45791418,14.65458029
GTM-000457,00-18-7789-42,EODP ANEXA A EOUM EL CERRITO,"CALLE PRINCIPAL SECTOR 7, ASENTAMIENTO EL CERRITO",GTM,Guatemala,Guatemala,,-90.45409096,14.67704464
GTM-000458,00-18-7790-43,EOUM EL CERRITO,"CALLE PRINCIPAL SECTOR 7, ASENTAMIENTO EL CERRITO",GTM,Guatemala,Guatemala,,-90.45409096,14.67704464
GTM-000459,00-18-7830-42,EODP ANEXA A EOUM NO.104 PUERTO RICO,"14 AVENIDA Y 5A. CALLE, COLONIA LAVARREDA",GTM,Guatemala,Guatemala,,-90.47553899,14.65276083
GTM-000460,00-18-8038-42,EODP ANEXA A EOUM NO.621,"16 AVENIDA 4-84, COLONIA RENACIMIENTO MUNICIPAL",GTM,Guatemala,Guatemala,,-90.47229159,14.65153354
GTM-000461,00-18-8039-42,EODP ANEXA A EOUM NO.439,"25 AVENIDA Y 12 CALLE, COLONIA PARAISO I",GTM,Guatemala,Guatemala,,-90.44526655,14.66111523
GTM-000462,00-18-8040-42,EODP ANEXA A EOUM LOS PINOS,30 AVE. 17 CALLE COLONIA LOS PINOS,GTM,Guatemala,Guatemala,,-90.45791418,14.65458029
GTM-000463,00-18-8054-43,EOUM,LOTE 49 SECCION D COLONIA LAS ILUSIONES,GTM,Guatemala,Guatemala,,-90.42219999,14.66521667
GTM-000464,00-18-8055-42,EODP ANEXA A ESCUELA OFICIAL URBANA MIXTA LAS ILUCIONES,LOTE 49 SECCION D COLONIA LAS ILUCIONES,GTM,Guatemala,Guatemala,,-90.42219999,14.66521667
GTM-000465,00-18-8539-43,EOUM NO. 436,25 AVENIDA 12-10 COLONIA PARAISO I,GTM,Guatemala,Guatemala,,-90.44568624,14.66063086
GTM-000466,00-18-8686-42,EODP ANEXA A EORM N.118 FELISA SOTO MONTENEGRO,14 CALLE 4-68 COLONIA ATLANTIDA,GTM,Guatemala,Guatemala,,-90.48061724,14.65910133
GTM-000467,00-18-8693-42,EODP ANEXA A EOUM,"ESQUINA DE ARCO PRINCIPAL Y ARCO NO.5 LOTE 00, COLONIA FATIMA",GTM,Guatemala,Guatemala,,-90.42642699,14.64656098
GTM-000468,00-18-8694-43,EOUM,ARCO PRINCIPAL ARCO 5 LOTE 00 COLONIA FATIMA,GTM,Guatemala,Guatemala,,-90.42642699,14.64656098
GTM-000469,00-18-8748-42,EODP ANEXA A EOUM JOHN F. KENNEDY,3A. AV. LOTE 200 COLONIA KENNEDY,GTM,Guatemala,Guatemala,,-90.45737724,14.66283773
GTM-000470,00-18-8848-42,EODP NO.143 SAN RAFAEL I,DIAGONAL 27 SAN RAFAEL LA LAGUNA I,GTM,Guatemala,Guatemala,,-90.45041046,14.65375886
GTM-000471,00-18-8991-42,EODP ANEXA A EORM HELENA C. DE CARRILLO,"LOTE 8 CALLEJON LA ESCUELITA, COLONIA LA ESTANCIA",GTM,Guatemala,Guatemala,,-90.44853399,14.68635423
GTM-000472,00-18-8992-43,EORM HELENA C. DE CARRILLO,LOTE 8 CALLEJON A LA ESCUELITA COLONIA LA ESTANCIA,GTM,Guatemala,Guatemala,,-90.44853399,14.68635423
GTM-000473,00-18-9438-42,EODP ANEXA A EORM 590,KM. 13.5 RUTA AL ATTLANTICO,GTM,Guatemala,Guatemala,,-90.41674177,14.67368492
GTM-000474,00-18-9578-42,EODP ANEXA A EOUM,"CALLE PRINCIPAL SECTOR 7, ASENTAMIENTO EL CERRITO",GTM,Guatemala,Guatemala,,-90.45409096,14.67704464
GTM-000475,00-18-9579-43,EOUM,"CALLE PRINCIPAL SECTOR 7, ASENTAMIENTO EL CERRITO",GTM,Guatemala,Guatemala,,-90.45409096,14.67704464
GTM-000476,00-19-1072-42,EODP NO.58,"9A.AVE. 4-60, COLONIA LA FLORIDA",GTM,Guatemala,Mixco,,-90.57827371,14.65669361
GTM-000477,00-19-1079-43,EOUM NO.59 PANAMERICANA,9A AVE. 5-05 COLONIA LA FLORIDA,GTM,Guatemala,Mixco,,-90.57827371,14.65669361
GTM-000478,00-19-1080-43,EOUN PANAMERICANA NO. 58,9A AVE. 5-05 COLONIA LA FLORIDA,GTM,Guatemala,Mixco,,-90.57827371,14.65669361
GTM-000479,00-19-1091-44,EOPA NO.21 RAFAEL ZEA RUANO,9A AVE. 5-05 COLONIA LA FLORIDA,GTM,Guatemala,Mixco,,-90.57827371,14.65669361
GTM-000480,00-21-1100-42,EODP NO.51 AURA ROSARIO ROSAL DE MEJIA VICTORES,33 AVE. 8A CALLE COLONIA JUSTO RUFINO BARRIOS,GTM,Guatemala,Guatemala,,-90.55065355,14.55198829
GTM-000481,00-21-1113-43,EOUM NO.125 JUSTO RUFINO BARRIOS,34 AVE. 9-30 COLONIA JUSTO RUFINO BARRIOS,GTM,Guatemala,Guatemala,,-90.53465915,14.54692892
GTM-000482,00-21-1114-43,EOUM ANDRES GILBERTO CUXIL TOC,14 CALLE A 32-18 COLONIA JUSTO RUFINO BARRIOS,GTM,Guatemala,Guatemala,,-90.53832271,14.54109536
GTM-000483,00-21-1115-43,EOUM ANDRES GILBERTO CUXIL TOC,14 CALLE A 32-18 COLONIA JUSTO RUFINO BARRIOS,GTM,Guatemala,Guatemala,,-90.53832271,14.54109536
GTM-000484,00-21-1116-43,EOUM NO.132 ALEJANDRO MALDONADO AGUIRRE,34 AVE. 9-30 COLONIA JUSTO RUFINO BARRIOS,GTM,Guatemala,Guatemala,,-90.53465915,14.54692892
GTM-000485,00-21-1129-45,INEB JUSTO RUFINO BARRIOS,14 CALLE FINAL Y 33 AVENIDA COLONIA JUSTO RUFINO BARRIOS,GTM,Guatemala,Guatemala,,-90.5356113,14.54177529
GTM-000486,00-21-1130-45,INEB JUSTO RUFINO BARRIOS,"14 CALLE FINAL Y 34 AVENIDA, COLONIA JUSTO RUFINO BARRIOS",GTM,Guatemala,Guatemala,,-90.5356113,14.54177529
GTM-000487,00-21-2863-43,EOUM NIMAJUYU A,16 AV. A 12-95 COLONIA NIMAJUYU I,GTM,Guatemala,Guatemala,,-90.55002643,14.54800783
GTM-000488,00-21-4304-42,EODP NO.24 REPUBLICA DE GUATEMALA,16 AV. 11-00 COL. BELLOS HORIZONTES,GTM,Guatemala,Guatemala,,-90.55067384,14.55197357
GTM-000489,00-21-4550-43,EOUN NO.27 REPUBLICA DE VENEZUELA,12 CALLE 18-09 COLONIA NIMAJUYU,GTM,Guatemala,Guatemala,,-90.5471993,14.54841142
GTM-000490,00-21-7121-42,EODP ANEXA A EOUM ASENTAMIENTO RAMIRO DE LEON CARPIO,"19 AVENIDA B, FINAL, COLONIA VENEZUELA",GTM,Guatemala,Guatemala,,-90.54570868,14.54881861
GTM-000491,00-21-7136-43,EOUM ASENTAMIENTO RAMIRO DE LEON CARPIO,"19 AVENIDA B, FINAL, COLONIA VENEZUELA",GTM,Guatemala,Guatemala,,-90.54570868,14.54881861
GTM-000492,00-21-7511-43,EOUM NO.105 NIMAJUYU C,16 AVENIDA 19-49 COLONIA NIMAJUYU,GTM,Guatemala,Petapa,,-90.55290805,14.54341001
GTM-000493,00-21-8088-42,EODP ANEXA A EOUM PROFESORA MARITZA HURTARTE GUILLEN,SECTOR I MANZANA 82 ASENTAMIENTO NUEVO AMANECER,GTM,Guatemala,Guatemala,,-90.55351784,14.54912808
GTM-000494,00-21-8089-43,EOUM PROFESORA MARITZA HURTARTE GUILLEN,SECTOR I MANZANA 82 ASENTAMIENTO NUEVO AMANECER,GTM,Guatemala,Guatemala,,-90.55351784,14.54912808
GTM-000495,00-21-8092-42,EODP ANEXA A EORM NO.105 NIMAJUYU C,16 AV. 19-49 COLONIA NIMAJUYU,GTM,Guatemala,Petapa,,-90.55290805,14.54341001
GTM-000496,00-21-8218-45,INEB 14 DE JULIO DE 1789,"4A. AVENIDA 10-82, COLONIA BELLO HORIZONTE",GTM,Guatemala,Guatemala,,-90.55100277,14.55144089
GTM-000497,00-21-9497-42,EODP ANEXA A EOUM ANDRES GILBERTO CUXIL TOC,"14 CALLE A 32-18, COLONIA JUSTO RUFINO BARRIOS",GTM,Guatemala,Guatemala,,-90.53832271,14.54109536
GTM-000498,01-01-1139-42,EODP ANEXA A EORM NO.602 EL CHATO,CALLE REAL LOTE 20 ALDEA CONCEPCION EL CHATO ZONA 18,GTM,Guatemala,Guatemala,,-90.40122596,14.69562211
GTM-000499,01-01-1145-42,EODP ANEXA A EORM NO.613 MARIO MENDEZ MONTENEGRO,ZONA 17 ALDEA SANTA LUCIA LOS OCOTES,GTM,Guatemala,Guatemala,,-90.41210968,14.61654976
GTM-000500,01-01-1203-43,EOUM NO.603 OSCAR DE LEON PALACIOS,KM. 12.5 RUTA AL ATLANTICO ALDEA LO DE RODRIGUEZ ZONA 18,GTM,Guatemala,Guatemala,,-90.41296665,14.67760001
GTM-000501,01-01-1212-43,EORM NO.602,CALLE REAL LOTE 20 ALDEA CONCEPCION EL CHATO ZONA 18,GTM,Guatemala,Guatemala,,-90.40122596,14.69562211
GTM-000502,01-01-1247-45,IEBC DE ENSEÑANZA,"LOTE 8, MANZANA 53 CANTON CENTRAL CANALITOS, ZONA 17",GTM,Guatemala,Guatemala,,-90.44920705,14.62507986
GTM-000503,01-02-1251-42,EODP ANEXA A EOUM NO.810,4A. AVENIDA 0-02 ZONA 1,GTM,Guatemala,Santa Catarina Pinula,,-90.49591187,14.57060526
GTM-000504,01-02-1257-43,EOUM NO.810,4A. AVENIDA 0-02 ZONA 1,GTM,Guatemala,Santa Catarina Pinula,,-90.49591187,14.57060526
GTM-000505,01-02-1258-43,EORM NO.813 MARGARITA GUILLEN DE VALLADARES,1A. AV. 2-70 ZONA 4 ALDEA NUEVA CONCEPCION,GTM,Guatemala,Santa Catarina Pinula,,-90.47898443,14.56335426
GTM-000506,01-02-1259-43,EORM NO.822,ALDEA SAN JOSE EL MANZANO,GTM,Guatemala,Santa Catarina Pinula,,-90.43635659,14.59241348
GTM-000507,01-02-1260-43,EORM NO.819,SECTOR I ALDEA LA SALVADORA,GTM,Guatemala,Santa Catarina Pinula,,-90.49037377,14.53900029
GTM-000508,01-02-1261-43,EORM NO.816,SECTOR II ALDEA EL CARMEN,GTM,Guatemala,Santa Catarina Pinula,,-90.50998121,14.54759636
GTM-000509,01-02-1262-43,EORM NO.821,ALDEA PIEDRA PARADA EL ROSARIO,GTM,Guatemala,Santa Catarina Pinula,,-90.44480646,14.58922248
GTM-000510,01-02-1263-43,EORM NO.823,ALDEA CUCHILLA DEL CARMEN,GTM,Guatemala,Santa Catarina Pinula,,-90.51841343,14.56257045
GTM-000511,01-02-1264-43,EORM NO.812,ALDEA EL MANZANO LA LIBERTAD,GTM,Guatemala,Santa Catarina Pinula,,-90.44826015,14.55525289
GTM-000512,01-02-1265-43,EORM N0.815 ARTURO TARACENA FLORES,ALDEA EL PAJON,GTM,Guatemala,Santa Catarina Pinula,,-90.43789677,14.55031879
GTM-000513,01-02-1266-43,EORM NO.818,ALDEA DON JUSTO,GTM,Guatemala,Santa Catarina Pinula,,-90.45437418,14.54175686
GTM-000514,01-02-1267-43,EORM NO.817 SECTOR I,5A. CALLE 1-02 SECTOR II ZONA 3 EL PUEBLITO,GTM,Guatemala,Santa Catarina Pinula,,-90.48957255,14.56163454
GTM-000515,01-02-1268-42,EODP ANEXA A EORM NO.811,ALDEA PIEDRA PARADA CRISTO REY,GTM,Guatemala,Santa Catarina Pinula,,-90.44460512,14.57370948
GTM-000516,01-02-1268-43,EORM NO.811,ALDEA PIEDRA PARADA CRISTO REY,GTM,Guatemala,Santa Catarina Pinula,,-90.44460512,14.57370948
GTM-000517,01-02-1269-43,EORM NO.814,KM. 14.5 CARRETERA A EL SALVADOR ALDEA PUERTA PARADA,GTM,Guatemala,Santa Catarina Pinula,,-90.46127609,14.5589007
GTM-000518,01-02-1270-43,EORM NO.820 SARA DE LA HOZ DE MENDEZ MONTENEGRO,ALDEA LAGUNA BERMEJA,GTM,Guatemala,Santa Catarina Pinula,,-90.43677065,14.56304514
GTM-000519,01-02-1275-45,INSTITUTO DE EDUCACION BASICA POR COOPERATIVA DE ENSEÑANZA,"6A AVENIDA, 1-10 ZONA 1",GTM,Guatemala,Santa Catarina Pinula,,-90.4966949,14.57141848
GTM-000520,01-02-2610-45,INSTITUTO DE EDUCACION BASICA POR COOPERATIVA DE ENSEÑANZA,PIEDRA PARADA EL ROSARIO,GTM,Guatemala,Santa Catarina Pinula,,-90.44480646,14.58922248
GTM-000521,01-02-2793-42,EODP ANEXA A EORM NO.823,ALDEA CUCHILLA DEL CARMEN,GTM,Guatemala,Santa Catarina Pinula,,-90.51841343,14.56257045
GTM-000522,01-02-6023-42,EODP ANEXA A EORM NO. 814,KM 14.5 A EL SALVADOR ALDEA PUERTA PARADA,GTM,Guatemala,Santa Catarina Pinula,,-90.46127609,14.5589007
GTM-000523,01-02-6024-42,EODP ANEXA A EORM DON JUSTO ARRAZOLA,DON JUSTO,GTM,Guatemala,Santa Catarina Pinula,,-90.45437418,14.54175686
GTM-000524,01-02-6025-42,EODP,"ALDEA EL CARMEN, SECTOR II SANTA CATARINA PINULA",GTM,Guatemala,Santa Catarina Pinula,,-90.50998121,14.54759636
GTM-000525,01-02-6029-42,EODP,ALDEA EL PAJON,GTM,Guatemala,Santa Catarina Pinula,,-90.43789677,14.55031879
GTM-000526,01-02-6030-42,EODP ANEXA A EORM,5A. CALLE 1-02 SECTOR II ZONA 3 ALDEA EL PUEBLITO,GTM,Guatemala,Santa Catarina Pinula,,-90.48957255,14.56163454
GTM-000527,01-02-6095-43,EOUM NO.810,4A.AV 0-02 ZONA 1,GTM,Guatemala,Santa Catarina Pinula,,-90.49591187,14.57060526
GTM-000528,01-02-6321-42,EODP ANEXA A EORM NO.813,ALDEA NUEVA CONCEPCION,GTM,Guatemala,Santa Catarina Pinula,,-90.47898443,14.56335426
GTM-000529,01-02-6917-42,EODP ANEXA A EORM,ALDEA LAGUNA BERMEJA,GTM,Guatemala,Santa Catarina Pinula,,-90.43677065,14.56304514
GTM-000530,01-02-7031-42,EODP ANEXA A EORM,ALDEA PIEDRA PARADA EL ROSARIO,GTM,Guatemala,Santa Catarina Pinula,,-90.44480646,14.58922248
GTM-000531,01-02-7350-43,EORM NO.823,ALDEA CUCHILLA DEL CARMEN,GTM,Guatemala,Santa Catarina Pinula,,-90.51841343,14.56257045
GTM-000532,01-02-7549-43,EORM NO.819,SECTOR II ALDEA LA SALVADORA,GTM,Guatemala,Santa Catarina Pinula,,-90.49993802,14.54372804
GTM-000533,01-02-7550-45,INSTITUTO DE EDUCACION BASICA POR COOPERATIVA,ALDEA CUCHILLA DEL CARMEN,GTM,Guatemala,Santa Catarina Pinula,,-90.50852965,14.56655814
GTM-000534,01-02-7551-42,EODP ANEXA A EORM NO.822,ALDEA SAN JOSE EL MANZANO,GTM,Guatemala,Santa Catarina Pinula,,-90.43635659,14.59241348
GTM-000535,01-02-7866-43,EORM NO.817 SECTOR II,ALDEA EL PUEBLITO,GTM,Guatemala,Santa Catarina Pinula,,-90.49052624,14.56003729
GTM-000536,01-02-7872-43,EORM NO.811,ALDEA PIEDRA PARADA CRISTO REY,GTM,Guatemala,Santa Catarina Pinula,,-90.44460512,14.57370948
GTM-000537,01-02-7873-43,"EORM NO.816 SECTOR II, ALDEA EL CARMEN JV","SECTOR CENTRAL 4, LOTE 57, ALDEA EL CARMEN ZONA 10",GTM,Guatemala,Santa Catarina Pinula,,-90.50998121,14.54759636
GTM-000538,01-02-7874-43,EORM NO.816 SECTOR I,ALDEA EL CARMEN SECTOR I,GTM,Guatemala,Santa Catarina Pinula,,-90.50151677,14.55839208
GTM-000539,01-02-8121-42,EODP ANEXA A EORM,ALDEA EL MANZANO LA LIBERTAD,GTM,Guatemala,Santa Catarina Pinula,,-90.44826015,14.55525289
GTM-000540,01-02-8327-42,EODP ANEXA A EORM NO. 817 SECTOR II,ALDEA EL PUEBLITO,GTM,Guatemala,Santa Catarina Pinula,,-90.49052624,14.56003729
GTM-000541,01-02-9238-43,"EORM NO. 815 ARTURO TARACENA FLORES, JV.",LOTE 45A ALDEA EL PAJON,GTM,Guatemala,Santa Catarina Pinula,,-90.43789677,14.55031879
GTM-000542,01-02-9743-42,EODP ANEXA A EORM NO. 811,ALDEA PIEDRA PARADA CRISTO REY,GTM,Guatemala,Santa Catarina Pinula,,-90.44460512,14.57370948
GTM-000543,01-02-9806-42,EODP ANEXA A EORM,SECTOR II ALDEA LA SALVADORA,GTM,Guatemala,Santa Catarina Pinula,,-90.49993802,14.54372804
GTM-000544,01-03-1278-42,EODP,1A CALLE Y 4A AVE. ZONA 3,GTM,Guatemala,San JosÃ© Pinula,,-90.4108633,14.54574061
GTM-000545,01-03-1282-43,EOUM NO.850 TIPO FEDERACION #1,1A. CALLE 8-36 ZONA 2,GTM,Guatemala,San JosÃ© Pinula,,-90.41716649,14.54685398
GTM-000546,01-03-1285-43,EORM NO.862,ALDEA JOYA DE LOS CEDROS,GTM,Guatemala,San JosÃ© Pinula,,-90.29537021,14.58410658
GTM-000547,01-03-1286-43,EORM NO.836,ALDEA EL ZAPOTE,GTM,Santa Rosa,San JosÃ© Pinula,,-90.29639146,14.51390958
GTM-000548,01-03-1288-43,EORM FRANCISCO VALDEZ ROSALES,ALDEA SANTA INES PINULA,GTM,Guatemala,San JosÃ© Pinula,,-90.42372084,14.54622595
GTM-000549,01-03-1289-43,EORM NO.868,ALDEA SAN SHIN,GTM,Guatemala,San JosÃ© Pinula,,-90.27867574,14.57946436
GTM-000550,01-03-1290-43,EORM NO. 1720,ALDEA EL SOMBRERITO,GTM,Guatemala,San JosÃ© Pinula,,-90.33834165,14.50112258
GTM-000551,01-03-1291-43,EORM,ALDEA CRUZ ALTA,GTM,Guatemala,San JosÃ© Pinula,,-90.31375255,14.56174551
GTM-000552,01-03-1292-43,EORM N0.855,ALDEA CIENAGA GRANDE,GTM,Guatemala,Santa Catarina Pinula,,-90.42610202,14.56127201
GTM-000553,01-03-1293-43,EORM NO.867,ALDEA EL TULAR,GTM,Guatemala,San JosÃ© Pinula,,-90.38604799,14.53274195
GTM-000554,01-03-1294-43,EORM NO. 854,ALDEA LAS ANONAS,GTM,Guatemala,Fraijanes,,-90.41515105,14.52768698
GTM-000555,01-03-1298-43,EORM NO.864,ALDEA LAS NUBES,GTM,Guatemala,San JosÃ© Pinula,,-90.34262705,14.57247336
GTM-000556,01-03-1302-43,EORM NO.856,CASERIO LA PRIMAVERA ALDEA MONTE REDONDO,GTM,Guatemala,San JosÃ© Pinula,,-90.33158796,14.53596195
GTM-000557,01-03-1306-44,EOPA NO.57,"1A CALLE 8-36, ZONA 2, SAN JOSE PINULA, GUATEMALA",GTM,Guatemala,San JosÃ© Pinula,,-90.41716649,14.54685398
GTM-000558,01-03-2614-45,INEB SAN JOSE PINULA,1A. AVENIDA 2-29 ZONA 1,GTM,Guatemala,San JosÃ© Pinula,,-90.41226549,14.54637939
GTM-000559,01-03-2842-43,ESCUELA OFICIAL RURAL MIXTA RIO FRIO,ALDEA RIO FRIO,GTM,Guatemala,San JosÃ© Pinula,,-90.31038665,14.58660692
GTM-000560,01-03-6027-42,EODP ANEXA A EORM NO. 855,ALDEA CIENAGA GRANDE,GTM,Guatemala,Santa Catarina Pinula,,-90.42610202,14.56127201
GTM-000561,01-03-6060-43,EORM,ALDEA EL SOCORRO,GTM,Guatemala,San JosÃ© Pinula,,-90.2845849,14.58475754
GTM-000562,01-03-6062-43,EORM,CASERIO LAS FLORES ALDEA CONTRERAS,GTM,Guatemala,San JosÃ© Pinula,,-90.36688152,14.58569864
GTM-000563,01-03-6153-43,EOUM PROF. JULIO VICTOR ORDOÑEZ VALIENTE,"SECCION D , LOTIFICACION SANTA SOFIA",GTM,Guatemala,San JosÃ© Pinula,,-90.40605234,14.53684664
GTM-000564,01-03-6312-42,EODP ANEXA A EORM NO.867,ALDEA EL TULAR,GTM,Guatemala,San JosÃ© Pinula,,-90.38604799,14.53274195
GTM-000565,01-03-6390-42,EODP ANEXA A EORM,ALDEA SANTA INES PINULA,GTM,Guatemala,San JosÃ© Pinula,,-90.42372084,14.54622595
GTM-000566,01-03-6391-42,EODP ANEXA A EOUM LOTIFICACION SANTA SOFIA,LOTIFICACION SANTA SOFIA,GTM,Guatemala,San JosÃ© Pinula,,-90.40605234,14.53684664
GTM-000567,01-03-6447-43,EOUM LOTIFICACION SANTA SOFIA,LOTIFICACION SANTA SOFIA,GTM,Guatemala,San JosÃ© Pinula,,-90.40605234,14.53684664
GTM-000568,01-03-6448-43,EORM,ALDEA LAS ANONAS,GTM,Guatemala,Fraijanes,,-90.41515105,14.52768698
GTM-000569,01-03-6550-43,EOUM NO.1712,8AV. Y 6A. CALLE ZONA 2,GTM,Guatemala,San JosÃ© Pinula,,-90.41655143,14.54928926
GTM-000570,01-03-6859-43,EORM,ALDEA CIENAGA GRANDE,GTM,Guatemala,Santa Catarina Pinula,,-90.42610202,14.56127201
GTM-000571,01-03-6918-42,EODP ANEXA A EORM NO.854,ALDEA LAS ANONAS,GTM,Guatemala,Fraijanes,,-90.41515105,14.52768698
GTM-000572,01-03-7816-45,INSTITUTO DE EDUCACION BASICA POR COOPERATIVA,2A. AV. 1-39 ZONA 4,GTM,Guatemala,San JosÃ© Pinula,,-90.41226549,14.54637939
GTM-000573,01-03-7891-43,EORM,ALDEA EL CARMEN,GTM,Guatemala,San JosÃ© Pinula,,-90.30306421,14.58933045
GTM-000574,01-03-7892-43,EORM,CASERIO PLAN GRANDE ALDEA LAS NUBES,GTM,Guatemala,San JosÃ© Pinula,,-90.3218329,14.59167108
GTM-000575,01-03-8000-43,EOUM NO.850,1A. CALLE 8-36 ZONA 2,GTM,Guatemala,San JosÃ© Pinula,,-90.41716649,14.54685398
GTM-000576,01-03-8002-42,EODP ANEXA A EORM,ALDEA EL SOCORRO,GTM,Guatemala,San JosÃ© Pinula,,-90.2845849,14.58475754
GTM-000577,01-03-8417-43,EORM,CASERIO EL MANZANO ALDEA RIO FRIO,GTM,Guatemala,San JosÃ© Pinula,,-90.31140496,14.57046479
GTM-000578,01-03-8418-42,EODP ANEXA A EORM NO.862,ALDEA JOYA DE LOS CEDROS,GTM,Guatemala,San JosÃ© Pinula,,-90.29537021,14.58410658
GTM-000579,01-03-9749-42,EODP ANEXA A EORM,ALDEA CIENAGA GRANDE,GTM,Guatemala,Santa Catarina Pinula,,-90.42610202,14.56127201
GTM-000580,01-04-1313-43,EOUM MATILDE VASHMI ZAVALA MIRANDA,2A. CALLE 1-18 ZONA 1,GTM,Guatemala,San JosÃ© del Golfo,,-90.3731009,14.76073986
GTM-000581,01-04-1314-43,EORM LOMA TENDIDA,ALDEA LOMA TENDIDA,GTM,Guatemala,San JosÃ© del Golfo,,-90.37669864,14.83193164
GTM-000582,01-04-1315-43,EORM NO.917,ALDEA EL JAVILLAL,GTM,Guatemala,San JosÃ© del Golfo,,-90.40275221,14.81945208
GTM-000583,01-04-1316-43,EORM DE LA ALDEA PONTEZUELAS,ALDEA PONTEZUELAS,GTM,Guatemala,San JosÃ© del Golfo,,-90.35724393,14.81862008
GTM-000584,01-04-1317-43,EORM NO.918,ALDEA EL CAULOTE,GTM,Guatemala,San JosÃ© del Golfo,,-90.35885484,14.80238686
GTM-000585,01-04-1318-43,EORM NO.922,CASERIO QUEBRADA SECA ALDEA CONCEPCION GRANDE,GTM,Guatemala,San JosÃ© del Golfo,,-90.38295199,14.83999392
GTM-000586,01-04-1319-43,EORM,ALDEA ENCUENTRO DE NAVAJAS,GTM,Guatemala,San JosÃ© del Golfo,,-90.34833252,14.76678983
GTM-000587,01-04-1320-43,EORM NITO PALENCIA MAYEN,ALDEA LA CHOLEÑA,GTM,Guatemala,San JosÃ© del Golfo,,-90.37906587,14.78100689
GTM-000588,01-04-2615-43,EORM,ALDEA JOYA DE LOS TERNEROS,GTM,Guatemala,San JosÃ© del Golfo,,-90.34585299,14.81635386
GTM-000589,01-04-6413-43,EOUM MATILDE VASHMI ZAVALA MIRANDA,2A. CALLE 1-18 ZONA 1,GTM,Guatemala,San JosÃ© del Golfo,,-90.3731009,14.76073986
GTM-000590,01-04-6438-43,EORM NITO PALENCIA MAYEN,ALDEA LA CHOLEÑA,GTM,Guatemala,San JosÃ© del Golfo,,-90.37906587,14.78100689
GTM-000591,01-04-7485-42,EODP ANEXA A EORM NO.918,ALDEA EL CAULOTE,GTM,Guatemala,San JosÃ© del Golfo,,-90.35885484,14.80238686
GTM-000592,01-04-7487-42,EODP NITO PALENCIA MAYEN,ALDEA LA CHOLEÑA,GTM,Guatemala,San JosÃ© del Golfo,,-90.37906587,14.78100689
GTM-000593,01-04-9254-42,EODP ANEXA A EORM N. 921,ALDEA LOMA TENDIDA,GTM,Guatemala,Mataquescuintla,,-90.21963427,14.65916904
GTM-000594,01-05-1322-42,EODP ANEXA A EOUM TIPO FEDERACION NO. 1,CENTRO CIVICO CALLE REAL,GTM,Guatemala,Palencia,,-90.36166293,14.66591714
GTM-000595,01-05-1323-42,ESCUELA OFICIAL DE PARVULOS ANEXA A LA ESCUELA OFICIAL RURAL MIXTA NO. 774,ALDEA LOS CUBES,GTM,Guatemala,Palencia,,-90.34411443,14.67685251
GTM-000596,01-05-1324-42,EODP ANEXA A ESCUELA OFICIAL RURAL MIXTA NO. 773 ISIDORO ZARCO ALFASA,ALDEA EL FISCAL,GTM,Guatemala,Palencia,,-90.39465002,14.71772879
GTM-000597,01-05-1327-43,EOUM TIPO FEDERACION,CENTRO CIVICO CALLE REAL,GTM,Guatemala,Palencia,,-90.36166293,14.66591714
GTM-000598,01-05-1328-43,EORM NO.787,ALDEA LA CONCEPCION,GTM,Guatemala,Palencia,,-90.32195024,14.60778254
GTM-000599,01-05-1329-43,EORM NO.779,ALDEA PLAN GRANDE,GTM,Guatemala,Palencia,,-90.31136155,14.65034886
GTM-000600,01-05-1331-43,EORM NO.781,ALDEA EL MANZANOTE,GTM,Guatemala,Palencia,,-90.33263549,14.66392076
GTM-000601,01-05-1332-43,EORM NO. 774,ALDEA LOS CUBES,GTM,Guatemala,Palencia,,-90.34411443,14.67685251
GTM-000602,01-05-1333-43,EORM NO.782,ALDEA AZACUALPILLA,GTM,Guatemala,Palencia,,-90.36305652,14.72447161
GTM-000603,01-05-1334-43,EORM NO.77,ALDEA LOS MIXCOS,GTM,Guatemala,Palencia,,-90.38279689,14.63916316
GTM-000604,01-05-1335-43,EORM NO.785,ALDEA PIE DEL CERRO,GTM,Guatemala,Palencia,,-90.35467471,14.63657839
GTM-000605,01-05-1336-43,EORM NO.769,CASERIO EL HATILLO ALDEA SANSUR,GTM,Guatemala,Palencia,,-90.23615494,14.65639175
GTM-000606,01-05-1337-43,EORM NO.783,CASERIO EL NANCE DULCE ALDEA AZACUALPILLA,GTM,Guatemala,Palencia,,-90.34107246,14.73202489
GTM-000607,01-05-1338-43,EORM NO.793,ALDEA EL BEJUCAL,GTM,Guatemala,Palencia,,-90.3052343,14.66590533
GTM-000608,01-05-1339-43,EORM NO.775,ALDEA EL TRIUNFO,GTM,Guatemala,Palencia,,-90.30073221,14.70621986
GTM-000609,01-05-1340-43,EORM NO. 773 ISIDORO ZARCO ALFASA,ALDEA EL FISCAL,GTM,Guatemala,Palencia,,-90.39465002,14.71772879
GTM-000610,01-05-1341-43,EORM NO.772,ALDEA SANGUAYABA,GTM,Guatemala,Palencia,,-90.29279715,14.62484842
GTM-000611,01-05-1342-43,EORM,CASERIO AGUA CALIENTE ALDEA SANSUR,GTM,Guatemala,Palencia,,-90.2361406,14.65642685
GTM-000612,01-05-1343-43,EORM NO. 770 LAS VERTIENTES,ALDEA LAS VERTIENTES,GTM,Guatemala,Palencia,,-90.32673555,14.65325267
GTM-000613,01-05-1344-43,EORM NO.778,ALDEA LOS PLANES,GTM,Guatemala,Palencia,,-90.28268202,14.60991664
GTM-000614,01-05-1345-43,EORM NO.767,ALDEA EL PARAISO,GTM,Guatemala,San JosÃ© Pinula,,-90.37127784,14.60875433
GTM-000615,01-05-1346-43,EORM NO.784,ALDEA LO DE SILVA,GTM,Guatemala,Palencia,,-90.33922343,14.64178448
GTM-000616,01-05-1347-43,EORM NO.792,"CASERIO JOYA LARGA, ALDEA SANSUR",GTM,Guatemala,Palencia,,-90.30521618,14.66591798
GTM-000617,01-05-1348-43,EORM NO.790,ALDEA YERBA BUENA,GTM,Guatemala,Palencia,,-90.28324034,14.62008289
GTM-000618,01-05-1349-43,EORM NO.791,ALDEA EL MANANTIAL,GTM,Guatemala,Palencia,,-90.26370202,14.62228269
GTM-000619,01-05-1350-43,EORM NO.789,ALDEA EL MANANTIAL,GTM,Guatemala,Mataquescuintla,,-90.22959768,14.63595889
GTM-000620,01-05-1351-43,EORM NO.788,ALDEA BUENA VISTA,GTM,Guatemala,Palencia,,-90.3582298,14.62286408
GTM-000621,01-05-1352-43,EORM NO.768,ALDEA SANSUR,GTM,Guatemala,Palencia,,-90.2727738,14.65919833
GTM-000622,01-05-1353-43,EORM NO.780,CASERIO LA CULEBRA ALDEA EL DULCE NOMBRE,GTM,Guatemala,Palencia,,-90.25264371,14.63416214
GTM-000623,01-05-1354-43,"EORM NO.1,210",ALDEA LOS TECOMATES,GTM,Guatemala,Palencia,,-90.38002737,14.62808995
GTM-000624,01-05-1355-43,EORM NO. 771,ALDEA MARILLANOS,GTM,Guatemala,Palencia,,-90.26963812,14.67276289
GTM-000625,01-05-1356-43,EORM NO.777,ALDEA PRIMERA JOYA,GTM,Guatemala,Palencia,,-90.32315337,14.64063129
GTM-000626,01-05-1359-45,INSTITUTO MIXTO DE EDUCACION BASICA POR COOPERATIVA,PALENCIA,GTM,Guatemala,Palencia,,-90.35548365,14.67026567
GTM-000627,01-05-2616-43,EORM CIUDAD JOYA 2000,LOTIFICACION JOYA 2000 KM 25.3 RUTA AL ATLANTICO,GTM,Guatemala,Palencia,,-90.36058352,14.74378879
GTM-000628,01-05-2617-43,EORM NO.1280,ALDEA LOS ANONOS,GTM,Guatemala,Palencia,,-90.31854024,14.67193679
GTM-000629,01-05-2618-45,INEB POR COOPERATIVA,ALDEA LOS MIXCOS,GTM,Guatemala,Palencia,,-90.38309312,14.64099458
GTM-000630,01-05-2619-42,EODP ANEXA A EORM NO. 772,ALDEA SANGUAYABA,GTM,Guatemala,Palencia,,-90.29279715,14.62484842
GTM-000631,01-05-2621-42,EODP ANEXA A EORM NO. 77,ALDEA LOS MIXCOS,GTM,Guatemala,Palencia,,-90.38279689,14.63916316
GTM-000632,01-05-2622-42,EODP ANEXA A EORM NO. 787,ALDEA CONCEPCION,GTM,Guatemala,Palencia,,-90.32195024,14.60778254
GTM-000633,01-05-2623-42,EODP ANEXA A EORM NO.768,ALDEA SANSUR,GTM,Guatemala,Palencia,,-90.2727738,14.65919833
GTM-000634,01-05-2625-45,IEBC DE ENSEÑANZA,ALDEA EL PARAISO,GTM,Guatemala,Palencia,,-90.37794243,14.61455964
GTM-000635,01-05-3061-43,EORM ESCUELA OFICIAL RURAL MIXTA EL PETEN,CASERIO EL PETEN ALDEA SANGUAYABA,GTM,Guatemala,Palencia,,-90.38303805,14.66158939
GTM-000636,01-05-3062-43,EORM,CASERIO NOMBRE DE DIOS ALDEA DULCE NOMBRE,GTM,Jalapa,San JosÃ© Pinula,,-90.26491868,14.60234242
GTM-000637,01-05-4113-42,EODP ANEXA A EORM NO.790,ALDEA YERBABUENA,GTM,Guatemala,Palencia,,-90.28324034,14.62008289
GTM-000638,01-05-6239-42,EODP ANEXA A EORM NO.767,ALDEA EL PARAISO,GTM,Guatemala,San JosÃ© Pinula,,-90.37127784,14.60875433
GTM-000639,01-05-6266-42,EODP ANEXA A EORM NO. 782,3A.CALLE 3-137 ZONA 0 ALDEA AZACUALPILLA,GTM,Guatemala,Palencia,,-90.36305652,14.72447161
GTM-000640,01-05-6357-42,EODP ANEXA A ESCUELA OFICIAL RURAL MIXTA NO. 773 ISIDORO ZARCO ALFASA,ALDEA EL FISCAL,GTM,Guatemala,Palencia,,-90.39465002,14.71772879
GTM-000641,01-05-6407-43,EORM,ALDEA EL PARAISO,GTM,Guatemala,San JosÃ© Pinula,,-90.37127784,14.60875433
GTM-000642,01-05-6408-43,EORM NO. 773 ISIDORO ZARCO ALFASA,ALDEA EL FISCAL,GTM,Guatemala,Palencia,,-90.39465002,14.71772879
GTM-000643,01-05-6409-43,EORM,ALDEA SANGUAYABA,GTM,Guatemala,Palencia,,-90.29279715,14.62484842
GTM-000644,01-05-6410-43,EOUM TIPO FEDERACION NO. 1,CENTRO CIVICO CALLE REAL,GTM,Guatemala,Palencia,,-90.36166293,14.66591714
GTM-000645,01-05-6411-43,"EORM NO.1,210",ALDEA LOS TECOMATES,GTM,Guatemala,Palencia,,-90.38002737,14.62808995
GTM-000646,01-05-6526-45,IEBC ----,ALDEA EL FISCAL,GTM,Guatemala,Palencia,,-90.39465002,14.71772879
GTM-000647,01-05-6624-43,EORM,CASERIO JOCOTALES ALDEA DULCE NOMBRE,GTM,Guatemala,Palencia,,-90.23708574,14.63955279
GTM-000648,01-05-6636-42,"EODP ANEXA EORM NO.1,210",ALDEA LOS TECOMATES,GTM,Guatemala,Palencia,,-90.38002737,14.62808995
GTM-000649,01-05-6876-43,EORM,CANTON RINCON DE LA PIEDRA,GTM,Guatemala,Palencia,,-90.35222702,14.67095158
GTM-000650,01-05-7023-43,EORM,CANTON AGUA TIBIA,GTM,Guatemala,Palencia,,-90.35762505,14.67739048
GTM-000651,01-05-7024-42,EODP ANEXA EORM,CANTON AGUA TIBIA,GTM,Guatemala,Palencia,,-90.35762505,14.67739048
GTM-000652,01-05-7025-43,EORM,LOTE 1 MANZANA 35 ALDEA LLANOS DE AZACUALPILLA KM. 23.5 RUTA AL ATLANTICO,GTM,Guatemala,Palencia,,-90.3527833,14.72476095
GTM-000653,01-05-7191-42,EODP ANEXA EORM NO. 1210,ALDEA LOS TECOMATES,GTM,Guatemala,Palencia,,-90.38002737,14.62808995
GTM-000654,01-05-7265-42,EODP ANEXA EORM,KM.23.5 RUTA AL ATLANTICO ALDEA LLANOS DE AZACUALPILLA,GTM,Guatemala,Palencia,,-90.3527833,14.72476095
GTM-000655,01-05-7469-43,EORM LA NUEVA SANSUR,ALDEA SANSUR,GTM,Guatemala,Palencia,,-90.271885,14.66103696
GTM-000656,01-05-7820-43,ESCUELA OFICIAL RURAL MIXTA,CASERIO LAS LAJAS ALDEA LO DE SILVA,GTM,Guatemala,Palencia,,-90.34093165,14.65847208
GTM-000657,01-05-8134-43,EORM,CASERIO EL PITO ALDEA PIE DE EL CERRO,GTM,Guatemala,Palencia,,-90.34494021,14.62877233
GTM-000658,01-05-8801-42,EODP ANEXA A EORM,CASERIO POTRERO GRANDE ALDEA LOS MIXCOS,GTM,Guatemala,Palencia,,-90.3819909,14.64822639
GTM-000659,01-05-8802-42,EODP ANEXA A EORM N. 778 LOS PLANES,ALDEA LOS PLANES,GTM,Guatemala,Palencia,,-90.28268202,14.60991664
GTM-000660,01-05-8803-43,EORM,CASERIO POTRERO GRANDE,GTM,Guatemala,Palencia,,-90.3819909,14.64822639
GTM-000661,01-05-9105-43,EORM,CASERIO PIEDRA PARADA ALDEA CONCEPCION,GTM,Guatemala,Palencia,,-90.33253918,14.62936142
GTM-000662,01-05-9106-43,EORM,CASERIO BARRO COLORADO ALDEA MANZANOTE,GTM,Guatemala,Palencia,,-90.32600146,14.66105539
GTM-000663,01-05-9296-43,EORM,KM. 23.5 RUTA AL ATLANTICO ALDEA LLANOS DE AZACUALPILLA,GTM,Guatemala,Palencia,,-90.3527833,14.72476095
GTM-000664,01-05-9433-42,EODP ANEXA A EORM NO. 781,ALDEA EL MANZANOTE,GTM,Guatemala,Palencia,,-90.33263549,14.66392076
GTM-000665,01-05-9434-42,EODP ANEXA A EORM NO. 775,ALDEA EL TRIUNFO,GTM,Guatemala,Palencia,,-90.30073221,14.70621986
GTM-000666,01-05-9448-42,EODP ANEXA A EORM,CANTON LOS MARILLANOS ALDEA LOS MIXCOS,GTM,Guatemala,Palencia,,-90.26963812,14.67276289
GTM-000667,01-05-9449-42,EODP ANEXA A EORM NO.783,CASERIO EL NANCE DULCE ALDEA AZACUALPILLA,GTM,Guatemala,Palencia,,-90.34107246,14.73202489
GTM-000668,01-05-9450-42,EODP ANEXA A EORM CIUDAD JOYA 2000,LOTIFICACION JOYA 2000 KM. 25.3 RUTA AL ATLANTICO,GTM,Guatemala,Palencia,,-90.36058352,14.74378879
GTM-000669,01-05-9451-42,EODP ANEXA A EORM LA NUEVA SANSUR,ALDEA SANSUR,GTM,San Marcos,Ayutla,,-92.12940627,14.67349486
GTM-000670,01-05-9454-42,EODP ANEXA A EORM NO.770,ALDEA LAS VERTIENTES,GTM,Guatemala,Palencia,,-90.32673555,14.65325267
GTM-000671,01-05-9455-42,EODP ANEXA A EORM NO.1280,ALDEA LOS ANONOS,GTM,Guatemala,Palencia,,-90.31854024,14.67193679
GTM-000672,01-05-9456-42,EODP ANEXA A EORM NO.784,ALDEA LO DE SILVA,GTM,Guatemala,Palencia,,-90.33922343,14.64178448
GTM-000673,01-05-9457-42,EODP ANEXA A EORM NO.777,ALDEA PRIMERA JOYA,GTM,Guatemala,Palencia,,-90.32315337,14.64063129
GTM-000674,01-05-9458-42,EODP ANEXA A EORM NO.785,ALDEA PIE DEL CERRO,GTM,Guatemala,Palencia,,-90.35467471,14.63657839
GTM-000675,01-05-9478-42,EODP ANEXA A EORM,CASERIO EL MANANTIAL ALDEA DULCE NOMBRE,GTM,Guatemala,Guatemala,,-90.45200452,14.65620948
GTM-000676,01-06-0011-42,EODP ANEXA A EOUM TIPO MINIMO NO. 905,CANTON CENTRAL SANTA CRUZ,GTM,Guatemala,Chinautla,,-90.49855299,14.70218004
GTM-000677,01-06-1360-42,EODP NO.68,15 AVENIDA FINAL ZONA 6 JOCOTALES,GTM,Guatemala,Chinautla,,-90.48851359,14.68560942
GTM-000678,01-06-1361-42,ESCUELA OFICIAL DE PARVULOS,"15 AVE.FINAL LOTE 120, SAN JOSE JOCOTALES ZONA 6",GTM,Guatemala,Chinautla,,-90.48767396,14.68671442
GTM-000679,01-06-1362-42,ESCUELA OFICIAL PARA PARVULOS,15 AVENIDA FINAL JOCOTALES ZONA 6,GTM,Guatemala,Chinautla,,-90.48779734,14.68611895
GTM-000680,01-06-1364-42,ESCUELA OFICIAL DE PARVULOS,"CANTON CENTRAL, SANTA CRUZ",GTM,Guatemala,Chinautla,,-90.49855299,14.70218004
GTM-000681,01-06-1371-43,EOUM NO.82 LIC.EMILIO ARENALES CATALAN,"15 AVENIDA FINAL,JOCOTALES",GTM,Guatemala,Chinautla,,-90.48767396,14.68671442
GTM-000682,01-06-1373-43,EOUM NO.108 RUBEN DARIO,"15 AVE. FINAL, JOCOTALES ZONA 6",GTM,Guatemala,Chinautla,,-90.48808702,14.68551279
GTM-000683,01-06-1374-43,EOUN NO.107 MARTA BOLAÑOS DE PRADO,15 AVE. FINAL JOCOTALES ZONA 6,GTM,Guatemala,Chinautla,,-90.48767396,14.68671442
GTM-000684,01-06-1375-43,EOUM TIPO MINIMO NO.905,CANTON CENTRAL SANTA CRUZ,GTM,Guatemala,Chinautla,,-90.49855299,14.70218004
GTM-000685,01-06-1376-43,EOUM NO. 912 TECUN UMAN,"15 AVE. FINAL, JOCOTALES",GTM,Guatemala,Chinautla,,-90.48779734,14.68611895
GTM-000686,01-06-1377-43,EOUM ASENTAMIENTO TIERRA NUEVA,COLONIA TIERRA NUEVA I,GTM,Guatemala,Mixco,,-90.5325044,14.6759802
GTM-000687,01-06-1379-43,EOUM NO.931,COLONIA TIERRA NUEVA I,GTM,Guatemala,Mixco,,-90.5325044,14.6759802
GTM-000688,01-06-1380-43,EOUM NO.121 RUBEN DARIO,15 AVENIDA. FINAL JOCOTALES ZONA 6,GTM,Guatemala,Chinautla,,-90.48808702,14.68551279
GTM-000689,01-06-1381-43,EORM NO. 915,CASERIO LAS LOMAS ALDEA TRES SABANAS,GTM,Guatemala,Chinautla,,-90.47354946,14.7398007
GTM-000690,01-06-1382-43,EORM,ALDEA SACOJITO,GTM,Guatemala,Chinautla,,-90.51984437,14.70825254
GTM-000691,01-06-1383-43,EORM CHINAUTLA,ALDEA EL CHAN,GTM,Guatemala,San Pedro Ayampuc,,-90.45329877,14.71062898
GTM-000692,01-06-1384-43,EORM NO. 906,ALDEA SAN ANTONIO LAS FLORES,GTM,Guatemala,Chinautla,,-90.48779734,14.68611895
GTM-000693,01-06-1385-43,EORM NO.911,ALDEA BUENA VISTA,GTM,Guatemala,Chinautla,,-90.47849543,14.69045876
GTM-000694,01-06-1386-43,EORM NO. 908,ALDEA EL DURAZNO,GTM,Guatemala,Chinautla,,-90.47575959,14.70902504
GTM-000695,01-06-1387-43,EORM NO. 910,ALDEA TRES SABANAS,GTM,Guatemala,Chinautla,,-90.4680563,14.71900283
GTM-000696,01-06-1388-43,EORM NO. 909,CASERIO LA LAGUNETA ALDEA EL DURAZNO,GTM,Guatemala,Chinautla,,-90.46186037,14.69633279
GTM-000697,01-06-1389-43,EORM MANUEL MARTINEZ BUCARO,ALDEA SAN RAFAEL LAS FLORES,GTM,Guatemala,San Raimundo,,-90.52589009,14.76439654
GTM-000698,01-06-1401-45,IEBC DE ENSEÑANZA,EDIFICIOS ESCOLARES FRENTE MANZANA 13 COLONIA TIERRA NUEVA I,GTM,Guatemala,Mixco,,-90.53253793,14.67674054
GTM-000699,01-06-2626-42,EODP ANEXA A ESCUELA URBANA MIXTA JOSEFINA ALONZO MARTINEZ,1A AV SECTOR NO. 3 COLONIA NUEVA CHINAUTLA JOCOTALES,GTM,Guatemala,Chinautla,,-90.4891599,14.68656958
GTM-000700,01-06-2627-43,EOUM JOSEFINA ALONZO MARTINEZ,1A AVE SECTOR NO. 3 COLONIA NUEVA CHINAUTLA JOCOTALES,GTM,Guatemala,Chinautla,,-90.4891599,14.68656958
GTM-000701,01-06-2813-42,EODP,"SECTOR 5 LOTE 1-B DE LA COMUNIDAD LA SALLE, ALDEA SACOJITO",GTM,Guatemala,Chinautla,,-90.51984437,14.70825254
GTM-000702,01-06-2930-42,EODP ANEXA A EORM ESPERANZA DE LA COMUNIDAD,ASENTAMIENTO TIERRA NUEVA II,GTM,Guatemala,Chinautla,,-90.52352437,14.67869998
GTM-000703,01-06-2930-43,EORM ESPERANZA DE LA COMUNIDAD,ASENTAMIENTO TIERRA NUEVA II,GTM,Guatemala,Chinautla,,-90.52352437,14.67869998
GTM-000704,01-06-2999-43,EORM ASENTAMIENTO TIERRA NUEVA II,SECTOR A-1 MANZANA A LOTE 7 ASENTAMIENTO DE TIERRA NUEVA II,GTM,Guatemala,Chinautla,,-90.52352437,14.67869998
GTM-000705,01-06-6326-42,EODP ANEXA A ESC. OFICIAL RURAL MIXTA NO.911.,ALDEA BUENA VISTA,GTM,Guatemala,Chinautla,,-90.47849543,14.69045876
GTM-000706,01-06-6392-42,EODP ANEXA A ESC. OFICIAL RURAL MIXTA,ALDEA EL CHAN,GTM,Guatemala,San Pedro Ayampuc,,-90.45329877,14.71062898
GTM-000707,01-06-6394-42,EODP ANEXA A ESC. OFICIAL RURAL MIXTA,ALDEA EL DURAZNO,GTM,Guatemala,Chinautla,,-90.47575959,14.70902504
GTM-000708,01-06-6450-43,EORM,CASERIO LA LAGUNETA ALDEA EL DURAZNO,GTM,Guatemala,Chinautla,,-90.46186037,14.69633279
GTM-000709,01-06-6456-43,EOUN N0.61 REPUBLICA DE ITALIA,COLONIA SANTA FAZ FINAL DE JOCOTALES ZONA 6 ---,GTM,Guatemala,Chinautla,,-90.49035618,14.69396167
GTM-000710,01-06-6457-43,EOUV NO. 21 DOMINGO MORALES,COLONIA SANTA FAZ,GTM,Guatemala,Chinautla,,-90.49035618,14.69396167
GTM-000711,01-06-6558-42,ESCUELA OFICIAL DE PARVULOS,ALDEA SAN ANTONIO LAS FLORES,GTM,Guatemala,Chinautla,,-90.48779734,14.68611895
GTM-000712,01-06-6641-42,EODP,17 CALLE FINAL COLONIA SANTA FAZ,GTM,Guatemala,Chinautla,,-90.49035618,14.69396167
GTM-000713,01-06-7029-42,EODP ANEXA EORM,ALDEA TRES SABANAS,GTM,Guatemala,Chinautla,,-90.4680563,14.71900283
GTM-000714,01-06-7036-42,EODP ANEXA EORM,CASERIO LA LAGUNETA ALDEA EL DURAZNO,GTM,Guatemala,Chinautla,,-90.46186037,14.69633279
GTM-000715,01-06-7042-42,EODP,COMPLEJO EDUCATIVO DE TIERRA NUEVA II,GTM,Guatemala,Chinautla,,-90.52352437,14.67869998
GTM-000716,01-06-7718-42,EODP ANEXA A EORM,ALDEA CUMBRE DEL GUAYABO,GTM,Guatemala,Chinautla,,-90.4707814,14.69367742
GTM-000717,01-06-7719-43,EORM CUMBRE DEL GUAYABO,LOTE 116 ALDEA CUMBRE DEL GUAYABO,GTM,Guatemala,Chinautla,,-90.4707814,14.69367742
GTM-000718,01-06-7818-42,EODP ANEXA A EORM,CASERIO LA LAGUNETA ALDEA EL DURAZNO,GTM,Guatemala,Chinautla,,-90.46186037,14.69633279
GTM-000719,01-06-8416-45,INSTITUTO OFICIAL MIXTO DE EDUCACION BASICA,CERRO SAN JULIAN,GTM,Guatemala,Chinautla,,-90.49110852,14.68510451
GTM-000720,01-06-8424-42,EODP ANEXA A EORM TECUN UMAN,LOTE 53 COLONIA TECUN UMAN SECTOR I,GTM,Guatemala,Chinautla,,-90.48204668,14.68985795
GTM-000721,01-06-8425-43,EORM TECUN UMAN,LOTE 53 COLONIA TECUN UMAN SECTOR I,GTM,Guatemala,Chinautla,,-90.48204668,14.68985795
GTM-000722,01-06-8427-43,EORM TECUN UMAN,LOTE 53 COLONIA TECUN UMAN SECTOR I,GTM,Guatemala,Chinautla,,-90.48204668,14.68985795
GTM-000723,01-06-8482-42,EODP ANEXO A EORM,CASERIO LAS LOMAS ALDEA TRES SABANAS,GTM,Guatemala,Chinautla,,-90.47354946,14.7398007
GTM-000724,01-06-8602-43,EORM TIERRA NUEVA II,SECTOR B-4 MANZANA Z LOTE 4 COLONIA TIERRA NUEVA II,GTM,Guatemala,Chinautla,,-90.51722655,14.68388201
GTM-000725,01-06-8830-43,EOUM NO. 905 TIPO MINIMO,CANTON CENTRAL,GTM,Guatemala,Chinautla,,-90.49855299,14.70218004
GTM-000726,01-06-9663-42,EODP ANEXA A EOUM NO.931,COLONIA TIERRA NUEVA I,GTM,Guatemala,Mixco,,-90.5325044,14.6759802
GTM-000727,01-07-1406-41,COPB ANEXO A EORM NO. 887,ALDEA SAN JOSE NACAHUIL,GTM,Guatemala,San Pedro Ayampuc,,-90.48457868,14.76183773
GTM-000728,01-07-1407-43,EOUM REGIONAL CANTON EL AGUACATE,CANTON EL AGUACATE,GTM,Guatemala,San Pedro Ayampuc,,-90.45590052,14.76947664
GTM-000729,01-07-1408-43,"EOUM NO. 1,865, FRANKLIN DELANO ROOSEVELT",7A. AV. 5-51 ZONA 1,GTM,Guatemala,San Pedro Ayampuc,,-90.4545594,14.77927208
GTM-000730,01-07-1409-43,EORM,ALDEA SAN RAFAEL LOS VADOS,GTM,Guatemala,San Pedro Ayampuc,,-90.41286715,14.74095404
GTM-000731,01-07-1410-43,EORM,ALDEA LA LAGUNILLA,GTM,Guatemala,San Pedro Ayampuc,,-90.45518168,14.73509611
GTM-000732,01-07-1411-43,EORM NO.1860,ALDEA LOS ACHIOTES,GTM,Guatemala,San Pedro Ayampuc,,-90.4074759,14.77763592
GTM-000733,01-07-1412-43,EORM,ALDEA EL TIZATE,GTM,Guatemala,San Pedro Ayampuc,,-90.41579077,14.75838304
GTM-000734,01-07-1413-43,EORM NO.1930,ALDEA EL PINALITO,GTM,Guatemala,San Pedro Ayampuc,,-90.45387812,14.74754154
GTM-000735,01-07-1414-43,EORM,ALDEA EL CARRIZAL,GTM,Guatemala,San Pedro Ayampuc,,-90.41581221,14.7583562
GTM-000736,01-07-1415-43,EORM NO.1905,ALDEA LABOR VIEJA,GTM,Guatemala,San Pedro Ayampuc,,-90.44882484,14.71615433
GTM-000737,01-07-1416-43,EORM COLONIA SAN LUIS,LOTE 1 A SECTOR II COLONIA SAN LUIS,GTM,Guatemala,San Pedro Ayampuc,,-90.44494637,14.73495126
GTM-000738,01-07-1417-43,EORM NO.1880,ALDEA LO DE REYES,GTM,Guatemala,San Pedro Ayampuc,,-90.44177065,14.73072945
